{"type":"FeatureCollection", "features": [
{"type":"Feature","geometry":{"type":"Point","coordinates":[35.60052813362145,3.1221601850069347]},"properties":{"FID_1":4960,"OBJECTID":4152,"NAME":"LODWAR","DISTRICT":"Turkana","Status":"DistHq","Population":34904,"Type":"Municipality","PROVINCE":"Rift Valley"}},
{"type":"Feature","geometry":{"type":"Point","coordinates":[37.98817808116988,2.333483798307576]},"properties":{"FID_1":5506,"OBJECTID":4706,"NAME":"MARSABIT","DISTRICT":"Marsabit","Status":"DistHq","Population":11982,"Type":"Other","PROVINCE":"Eastern"}},
{"type":"Feature","geometry":{"type":"Point","coordinates":[41.863581746464625,3.9414252094232722]},"properties":{"FID_1":3300,"OBJECTID":6174,"NAME":"MANDERA","DISTRICT":"Mandera","Status":"DistHq","Population":43916,"Type":"Town Council","PROVINCE":"North Eastern"}},
{"type":"Feature","geometry":{"type":"Point","coordinates":[40.05793775799246,1.7538961696480555]},"properties":{"FID_1":5575,"OBJECTID":6212,"NAME":"WAJIR","DISTRICT":"Wajir","Status":"DistHq","Population":44272,"Type":"Town Council","PROVINCE":"North Eastern"}},
{"type":"Feature","geometry":{"type":"Point","coordinates":[35.11762769921807,1.2429587987028932]},"properties":{"FID_1":3090,"OBJECTID":5964,"NAME":"KAPENGURIA","DISTRICT":"West Pokot","Status":"DistHq","Population":48730,"Type":"Municipality","PROVINCE":"Rift Valley"}},
{"type":"Feature","geometry":{"type":"Point","coordinates":[36.69851436440051,1.0991221009870913]},"properties":{"FID_1":5390,"OBJECTID":4588,"NAME":"MARALAL","DISTRICT":"Samburu","Status":"DistHq","Population":24502,"Type":"Town Council","PROVINCE":"Rift Valley"}},
{"type":"Feature","geometry":{"type":"Point","coordinates":[37.581282604986654,0.3520246020050624]},"properties":{"FID_1":733,"OBJECTID":1889,"NAME":"ISIOLO","DISTRICT":"Isiolo","Status":"DistHq","Population":32684,"Type":"Other","PROVINCE":"Eastern"}},
{"type":"Feature","geometry":{"type":"Point","coordinates":[35.74257086361657,0.4953016418393961]},"properties":{"FID_1":5241,"OBJECTID":4439,"NAME":"KABARNET","DISTRICT":"Baringo","Status":"DistHq","Population":16931,"Type":"Municipality","PROVINCE":"Rift Valley"}},
{"type":"Feature","geometry":{"type":"Point","coordinates":[35.002934560535145,1.019817708904131]},"properties":{"FID_1":2903,"OBJECTID":5776,"NAME":"KITALE","DISTRICT":"Trans Nzoia","Status":"DistHq","Population":86282,"Type":"Municipality","PROVINCE":"Rift Valley"}},
{"type":"Feature","geometry":{"type":"Point","coordinates":[39.643102223622485,-0.45279689355766567]},"properties":{"FID_1":5603,"OBJECTID":6241,"NAME":"GARISSA","DISTRICT":"Garissa","Status":"ProvHq","Population":69203,"Type":"Municipality","PROVINCE":"North Eastern"}},
{"type":"Feature","geometry":{"type":"Point","coordinates":[35.27555852198368,0.5204228551135378]},"properties":{"FID_1":4433,"OBJECTID":102,"NAME":"ELDORET","DISTRICT":"Uasin Gishu","Status":"DistHq","Population":0,"Type":"Municipality","PROVINCE":"Rift Valley"}},
{"type":"Feature","geometry":{"type":"Point","coordinates":[34.56300077610938,0.5638749103064985]},"properties":{"FID_1":1519,"OBJECTID":3610,"NAME":"BUNGOMA","DISTRICT":"Bungoma","Status":"DistHq","Population":73048,"Type":"Municipality","PROVINCE":"Western"}},
{"type":"Feature","geometry":{"type":"Point","coordinates":[37.0780521905506,0.017837523282430292]},"properties":{"FID_1":4205,"OBJECTID":2030,"NAME":"NANYUKI","DISTRICT":"Laikipia","Status":"DistHq","Population":49330,"Type":"Municipality","PROVINCE":"Rift Valley"}},
{"type":"Feature","geometry":{"type":"Point","coordinates":[35.506674820197304,0.6730305144377681]},"properties":{"FID_1":1777,"OBJECTID":2755,"NAME":"ITEN","DISTRICT":"Keiyo","Status":"DistHq","Population":22710,"Type":"Town Council","PROVINCE":"Rift Valley"}},
{"type":"Feature","geometry":{"type":"Point","coordinates":[34.102018177097136,0.4670100237332773]},"properties":{"FID_1":582,"OBJECTID":1646,"NAME":"BUSIA","DISTRICT":"Busia","Status":"DistHq","Population":44211,"Type":"Municipality","PROVINCE":"Western"}},
{"type":"Feature","geometry":{"type":"Point","coordinates":[34.75326951151799,0.2850709756100844]},"properties":{"FID_1":5077,"OBJECTID":4269,"NAME":"KAKAMEGA","DISTRICT":"Kakamega","Status":"ProvHq","Population":74115,"Type":"Municipality","PROVINCE":"Western"}},
{"type":"Feature","geometry":{"type":"Point","coordinates":[35.098599016231915,0.20588702046369536]},"properties":{"FID_1":5212,"OBJECTID":4408,"NAME":"KAPSABET","DISTRICT":"NandiNoth","Status":"DistHq","Population":48729,"Type":"Municipality","PROVINCE":"Rift Valley"}},
{"type":"Feature","geometry":{"type":"Point","coordinates":[37.65178851340571,0.04959913913161364]},"properties":{"FID_1":3349,"OBJECTID":3175,"NAME":"MERU","DISTRICT":"Meru Central","Status":"DistHq","Population":126427,"Type":"Municipality","PROVINCE":"Eastern"}},
{"type":"Feature","geometry":{"type":"Point","coordinates":[34.28471732510337,0.06309980289674023]},"properties":{"FID_1":4628,"OBJECTID":316,"NAME":"SIAYA","DISTRICT":"Siaya","Status":"DistHq","Population":41148,"Type":"Municipality","PROVINCE":"Nyanza"}},
{"type":"Feature","geometry":{"type":"Point","coordinates":[36.069151593537775,-0.2809877148469454]},"properties":{"FID_1":3837,"OBJECTID":792,"NAME":"NAKURU","DISTRICT":"Nakuru","Status":"ProvHq","Population":231262,"Type":"Municipality","PROVINCE":"Rift Valley"}},
{"type":"Feature","geometry":{"type":"Point","coordinates":[34.71033205335897,0.03983860494484314]},"properties":{"FID_1":4411,"OBJECTID":79,"NAME":"VIHIGA","DISTRICT":"Vihiga","Status":"DistHq","Population":109508,"Type":"Municipality","PROVINCE":"Western"}},
{"type":"Feature","geometry":{"type":"Point","coordinates":[36.376723492166015,-0.27239727525600627]},"properties":{"FID_1":182,"OBJECTID":598,"NAME":"OL KALOU","DISTRICT":"Nyandarua","Status":"DistHq","Population":48865,"Type":"Town Council","PROVINCE":"Central"}},
{"type":"Feature","geometry":{"type":"Point","coordinates":[35.2834580654783,-0.36400186823474173]},"properties":{"FID_1":4008,"OBJECTID":1373,"NAME":"KERICHO","DISTRICT":"Kericho","Status":"DistHq","Population":93213,"Type":"Municipality","PROVINCE":"Rift Valley"}},
{"type":"Feature","geometry":{"type":"Point","coordinates":[34.757979236243884,-0.09781833618008644]},"properties":{"FID_1":5446,"OBJECTID":4645,"NAME":"KISUMU CITY","DISTRICT":"Kisumu","Status":"ProvHq","Population":322734,"Type":"City","PROVINCE":"Nyanza"}},
{"type":"Feature","geometry":{"type":"Point","coordinates":[36.95099962644649,-0.4216949808153815]},"properties":{"FID_1":6243,"OBJECTID":2489,"NAME":"NYERI","DISTRICT":"Nyeri","Status":"ProvHq","Population":101238,"Type":"Municipality","PROVINCE":"Central"}},
{"type":"Feature","geometry":{"type":"Point","coordinates":[40.033399305017596,-1.4965818576685654]},"properties":{"FID_1":5641,"OBJECTID":6280,"NAME":"HOLA","DISTRICT":"Tana River","Status":"DistHq","Population":10453,"Type":"Other","PROVINCE":"Coast"}},
{"type":"Feature","geometry":{"type":"Point","coordinates":[37.6449588836607,-0.33294049435969364]},"properties":{"FID_1":778,"OBJECTID":1946,"NAME":"CHUKA","DISTRICT":"Meru South","Status":"DistHq","Population":7271,"Type":"Town Council","PROVINCE":"Eastern"}},
{"type":"Feature","geometry":{"type":"Point","coordinates":[37.450960246821595,-0.5341308365903846]},"properties":{"FID_1":450,"OBJECTID":1511,"NAME":"EMBU","DISTRICT":"Embu","Status":"ProvHq","Population":52446,"Type":"Municipality","PROVINCE":"Eastern"}},
{"type":"Feature","geometry":{"type":"Point","coordinates":[34.934438728310454,-0.5597117998431459]},"properties":{"FID_1":2564,"OBJECTID":5429,"NAME":"NYAMIRA","DISTRICT":"Nyamira","Status":"DistHq","Population":100082,"Type":"Town Council","PROVINCE":"Nyanza"}},
{"type":"Feature","geometry":{"type":"Point","coordinates":[35.8698732449143,-1.0888191500204696]},"properties":{"FID_1":3469,"OBJECTID":3297,"NAME":"NAROK","DISTRICT":"Narok","Status":"DistHq","Population":41162,"Type":"Town Council","PROVINCE":"Rift Valley"}},
{"type":"Feature","geometry":{"type":"Point","coordinates":[34.4549571784322,-0.5269500737971995]},"properties":{"FID_1":3006,"OBJECTID":5879,"NAME":"HOMA BAY","DISTRICT":"Homa Bay","Status":"DistHq","Population":56257,"Type":"Municipality","PROVINCE":"Nyanza"}},
{"type":"Feature","geometry":{"type":"Point","coordinates":[34.77030843144658,-0.6727675401252405]},"properties":{"FID_1":2354,"OBJECTID":5213,"NAME":"KISII","DISTRICT":"Kisii","Status":"DistHq","Population":65235,"Type":"Municipality","PROVINCE":"Nyanza"}},
{"type":"Feature","geometry":{"type":"Point","coordinates":[37.15873736943794,-0.7190803245913734]},"properties":{"FID_1":5919,"OBJECTID":6566,"NAME":"MURANGA","DISTRICT":"Muranga","Status":"DistHq","Population":58007,"Type":"Municipality","PROVINCE":"Central"}},
{"type":"Feature","geometry":{"type":"Point","coordinates":[35.34039463498514,-0.779183103848907]},"properties":{"FID_1":4282,"OBJECTID":2113,"NAME":"BOMET","DISTRICT":"Bomet","Status":"DistHq","Population":84320,"Type":"Municipality","PROVINCE":"Rift Valley"}},
{"type":"Feature","geometry":{"type":"Point","coordinates":[34.47249606245908,-1.0602072905446704]},"properties":{"FID_1":3170,"OBJECTID":6044,"NAME":"MIGORI","DISTRICT":"Migori","Status":"DistHq","Population":95446,"Type":"Town Council","PROVINCE":"Nyanza"}},
{"type":"Feature","geometry":{"type":"Point","coordinates":[36.82920667816093,-1.1696535991270243]},"properties":{"FID_1":218,"OBJECTID":1197,"NAME":"KIAMBU","DISTRICT":"Kiambu","Status":"DistHq","Population":60605,"Type":"Municipality","PROVINCE":"Central"}},
{"type":"Feature","geometry":{"type":"Point","coordinates":[37.26620082747158,-1.517251829521625]},"properties":{"FID_1":1953,"OBJECTID":824,"NAME":"MACHAKOS","DISTRICT":"Machakos","Status":"DistHq","Population":143274,"Type":"Municipality","PROVINCE":"Eastern"}},
{"type":"Feature","geometry":{"type":"Point","coordinates":[36.79051869427957,-1.8394485234502016]},"properties":{"FID_1":418,"OBJECTID":1479,"NAME":"KAJIADO","DISTRICT":"Kajiado","Status":"DistHq","Population":9165,"Type":"Town Council","PROVINCE":"Rift Valley"}},
{"type":"Feature","geometry":{"type":"Point","coordinates":[38.01106721885309,-1.3630440680934077]},"properties":{"FID_1":4740,"OBJECTID":3932,"NAME":"KITUI","DISTRICT":"Kitui","Status":"DistHq","Population":106873,"Type":"Municipality","PROVINCE":"Eastern"}},
{"type":"Feature","geometry":{"type":"Point","coordinates":[40.85603454053204,-2.268716279046571]},"properties":{"FID_1":5754,"OBJECTID":6395,"NAME":"LAMU","DISTRICT":"Lamu","Status":"DistHq","Population":11831,"Type":"Other","PROVINCE":"Coast"}},
{"type":"Feature","geometry":{"type":"Point","coordinates":[39.84868855209079,-3.617685314906474]},"properties":{"FID_1":3060,"OBJECTID":5934,"NAME":"KILIFI","DISTRICT":"Kilifi","Status":"DistHq","Population":75527,"Type":"Town Council","PROVINCE":"Coast"}},
{"type":"Feature","geometry":{"type":"Point","coordinates":[39.45202105289049,-4.172894905983299]},"properties":{"FID_1":5712,"OBJECTID":6352,"NAME":"KWALE","DISTRICT":"Kwale","Status":"DistHq","Population":15840,"Type":"Town Council","PROVINCE":"Coast"}},
{"type":"Feature","geometry":{"type":"Point","coordinates":[39.67131840357379,-4.056138817493886]},"properties":{"FID_1":1671,"OBJECTID":3766,"NAME":"MOMBASA","DISTRICT":"Mombasa","Status":"ProvHq","Population":665018,"Type":"City","PROVINCE":"Coast"}},
{"type":"Feature","geometry":{"type":"Point","coordinates":[38.365503776755446,-3.4028041327326495]},"properties":{"FID_1":0,"OBJECTID":0,"NAME":"WUNDANYI","DISTRICT":"Taita Taveta","Status":"DistHq","Population":6930,"Type":"Other","PROVINCE":"Coast"}},
{"type":"Feature","geometry":{"type":"Point","coordinates":[36.81950345053337,-1.2898936488260497]},"properties":{"FID_1":0,"OBJECTID":0,"NAME":"NAIROBI","DISTRICT":"Nairobi","Status":"ProvHq","Population":2143254,"Type":"City","PROVINCE":"Nairobi"}},
{"type":"Feature","geometry":{"type":"Point","coordinates":[37.62533115809597,-1.7802422085003857]},"properties":{"FID_1":0,"OBJECTID":0,"NAME":"WOTE","DISTRICT":"Makueni","Status":"DistHq","Population":58196,"Type":"Town Council","PROVINCE":"Eastern"}},
{"type":"Feature","geometry":{"type":"Point","coordinates":[37.277509378159344,-0.49644291776868915]},"properties":{"FID_1":0,"OBJECTID":0,"NAME":"KERUGOYA","DISTRICT":"Kirinyaga","Status":"DistHq","Population":35595,"Type":"Municipality","PROVINCE":"Central"}}
]}