{"type":"FeatureCollection", "features": [
{"type":"Feature","geometry":{"type":"Point","coordinates":[35.751768127556154,4.27171404603383]},"properties":{"FID_1":4972,"OBJECTID":4164,"NAME":"LOKITUANG","DISTRICT":"Turkana","Status":"DivHq","Population":1617,"Type":"Other","PROVINCE":"Rift Valley"}},
{"type":"Feature","geometry":{"type":"Point","coordinates":[35.82796241550906,5.292280341160699]},"properties":{"FID_1":4978,"OBJECTID":4170,"NAME":"KIBISH","DISTRICT":"Turkana","Status":"DivHq","Population":0,"Type":"Other","PROVINCE":"Rift Valley"}},
{"type":"Feature","geometry":{"type":"Point","coordinates":[35.43143867440804,2.276949532698663]},"properties":{"FID_1":4992,"OBJECTID":4184,"NAME":"KATILU","DISTRICT":"Turkana","Status":"DivHq","Population":406,"Type":"Other","PROVINCE":"Rift Valley"}},
{"type":"Feature","geometry":{"type":"Point","coordinates":[35.43483849753063,2.2460480529647544]},"properties":{"FID_1":4994,"OBJECTID":4186,"NAME":"LOPUR","DISTRICT":"Turkana","Status":"DivHq","Population":0,"Type":"Other","PROVINCE":"Rift Valley"}},
{"type":"Feature","geometry":{"type":"Point","coordinates":[36.027763589727336,1.9548741870878459]},"properties":{"FID_1":4998,"OBJECTID":4190,"NAME":"LOKORI","DISTRICT":"Turkana","Status":"DivHq","Population":0,"Type":"Other","PROVINCE":"Rift Valley"}},
{"type":"Feature","geometry":{"type":"Point","coordinates":[35.3988202094205,2.921610498103177]},"properties":{"FID_1":5006,"OBJECTID":4198,"NAME":"TURKWELL","DISTRICT":"Turkana","Status":"DivHq","Population":392,"Type":"Other","PROVINCE":"Rift Valley"}},
{"type":"Feature","geometry":{"type":"Point","coordinates":[36.053271434507344,3.0045649157944743]},"properties":{"FID_1":5008,"OBJECTID":4200,"NAME":"KERIO","DISTRICT":"Turkana","Status":"DivHq","Population":0,"Type":"Other","PROVINCE":"Rift Valley"}},
{"type":"Feature","geometry":{"type":"Point","coordinates":[34.86427126526122,3.7105872056414797]},"properties":{"FID_1":5011,"OBJECTID":4203,"NAME":"KAKUMA","DISTRICT":"Turkana","Status":"DivHq","Population":9107,"Type":"Other","PROVINCE":"Rift Valley"}},
{"type":"Feature","geometry":{"type":"Point","coordinates":[34.35860087216838,4.208359702003426]},"properties":{"FID_1":5012,"OBJECTID":4204,"NAME":"LOKICHOKIO","DISTRICT":"Turkana","Status":"DivHq","Population":13728,"Type":"Other","PROVINCE":"Rift Valley"}},
{"type":"Feature","geometry":{"type":"Point","coordinates":[34.35642135463424,3.813891562298646]},"properties":{"FID_1":5014,"OBJECTID":4206,"NAME":"OROPOI","DISTRICT":"Turkana","Status":"DivHq","Population":0,"Type":"Other","PROVINCE":"Rift Valley"}},
{"type":"Feature","geometry":{"type":"Point","coordinates":[35.55029994066042,4.37408854776115]},"properties":{"FID_1":5025,"OBJECTID":4217,"NAME":"KAALING","DISTRICT":"Turkana","Status":"DivHq","Population":0,"Type":"Other","PROVINCE":"Rift Valley"}},
{"type":"Feature","geometry":{"type":"Point","coordinates":[35.862552281644874,3.5394501134137557]},"properties":{"FID_1":5035,"OBJECTID":4227,"NAME":"KALOKOL","DISTRICT":"Turkana","Status":"DivHq","Population":2143,"Type":"Other","PROVINCE":"Rift Valley"}},
{"type":"Feature","geometry":{"type":"Point","coordinates":[35.6425461214974,2.3891750800539047]},"properties":{"FID_1":5036,"OBJECTID":4228,"NAME":"LOKICHAR","DISTRICT":"Turkana","Status":"DivHq","Population":0,"Type":"Other","PROVINCE":"Rift Valley"}},
{"type":"Feature","geometry":{"type":"Point","coordinates":[35.50608450334637,1.7775152607904456]},"properties":{"FID_1":5038,"OBJECTID":4230,"NAME":"KAINUK","DISTRICT":"Turkana","Status":"DivHq","Population":0,"Type":"Other","PROVINCE":"Rift Valley"}},
{"type":"Feature","geometry":{"type":"Point","coordinates":[36.91552117440295,2.1001817590382554]},"properties":{"FID_1":5372,"OBJECTID":4570,"NAME":"SOUTH HORR","DISTRICT":"Marsabit","Status":"DivHq","Population":0,"Type":"Other","PROVINCE":"Eastern"}},
{"type":"Feature","geometry":{"type":"Point","coordinates":[37.07184116672387,3.3244309936613554]},"properties":{"FID_1":5497,"OBJECTID":4697,"NAME":"NORTH HORR","DISTRICT":"Marsabit","Status":"DivHq","Population":2401,"Type":"Other","PROVINCE":"Eastern"}},
{"type":"Feature","geometry":{"type":"Point","coordinates":[37.634788408417855,2.926122355442946]},"properties":{"FID_1":5499,"OBJECTID":4699,"NAME":"MAIKONA","DISTRICT":"Marsabit","Status":"DivHq","Population":0,"Type":"Other","PROVINCE":"Eastern"}},
{"type":"Feature","geometry":{"type":"Point","coordinates":[37.80222935522967,1.593997190026814]},"properties":{"FID_1":5509,"OBJECTID":4709,"NAME":"LAISAMIS","DISTRICT":"Marsabit","Status":"DivHq","Population":1938,"Type":"Other","PROVINCE":"Eastern"}},
{"type":"Feature","geometry":{"type":"Point","coordinates":[40.64755320691664,2.445591030319993]},"properties":{"FID_1":3294,"OBJECTID":6168,"NAME":"KUTULO MANDERA","DISTRICT":"Mandera","Status":"DivHq","Population":0,"Type":"Other","PROVINCE":"North Eastern"}},
{"type":"Feature","geometry":{"type":"Point","coordinates":[40.929486658793,2.8084391760345957]},"properties":{"FID_1":3295,"OBJECTID":6169,"NAME":"EL WAK","DISTRICT":"Mandera","Status":"DivHq","Population":11128,"Type":"Other","PROVINCE":"North Eastern"}},
{"type":"Feature","geometry":{"type":"Point","coordinates":[40.86673996979923,3.182007419382016]},"properties":{"FID_1":3296,"OBJECTID":6170,"NAME":"WARGADUD","DISTRICT":"Mandera","Status":"DivHq","Population":0,"Type":"Other","PROVINCE":"North Eastern"}},
{"type":"Feature","geometry":{"type":"Point","coordinates":[41.21526910914632,3.9366242582665576]},"properties":{"FID_1":3299,"OBJECTID":6173,"NAME":"RHAMU","DISTRICT":"Mandera","Status":"DivHq","Population":7437,"Type":"Other","PROVINCE":"North Eastern"}},
{"type":"Feature","geometry":{"type":"Point","coordinates":[40.48056330940791,1.7209847166266266]},"properties":{"FID_1":3301,"OBJECTID":6175,"NAME":"WAJIR BOR","DISTRICT":"Wajir","Status":"DivHq","Population":0,"Type":"Other","PROVINCE":"North Eastern"}},
{"type":"Feature","geometry":{"type":"Point","coordinates":[39.489661055762376,1.0184088223518848]},"properties":{"FID_1":3305,"OBJECTID":6180,"NAME":"HABASWEIN","DISTRICT":"Wajir","Status":"DivHq","Population":0,"Type":"Other","PROVINCE":"North Eastern"}},
{"type":"Feature","geometry":{"type":"Point","coordinates":[39.749805515661585,2.002178445266938]},"properties":{"FID_1":3308,"OBJECTID":6183,"NAME":"GIRIFTU","DISTRICT":"Wajir","Status":"DivHq","Population":0,"Type":"Other","PROVINCE":"North Eastern"}},
{"type":"Feature","geometry":{"type":"Point","coordinates":[40.96047580633282,0.9973281463691945]},"properties":{"FID_1":3314,"OBJECTID":6189,"NAME":"DIF","DISTRICT":"Wajir","Status":"DivHq","Population":0,"Type":"Other","PROVINCE":"North Eastern"}},
{"type":"Feature","geometry":{"type":"Point","coordinates":[39.418293838032405,3.362264874410622]},"properties":{"FID_1":5565,"OBJECTID":6202,"NAME":"BUTE","DISTRICT":"Wajir","Status":"DivHq","Population":2808,"Type":"Other","PROVINCE":"North Eastern"}},
{"type":"Feature","geometry":{"type":"Point","coordinates":[39.570974925169054,3.3717654661518313]},"properties":{"FID_1":5568,"OBJECTID":6205,"NAME":"GURAR","DISTRICT":"Wajir","Status":"DivHq","Population":0,"Type":"Other","PROVINCE":"North Eastern"}},
{"type":"Feature","geometry":{"type":"Point","coordinates":[40.117504066805566,2.2095689649030974]},"properties":{"FID_1":5577,"OBJECTID":6214,"NAME":"TARBAJ","DISTRICT":"Wajir","Status":"DivHq","Population":0,"Type":"Other","PROVINCE":"North Eastern"}},
{"type":"Feature","geometry":{"type":"Point","coordinates":[40.59442632869263,2.4098992401056516]},"properties":{"FID_1":5578,"OBJECTID":6215,"NAME":"KOTULO","DISTRICT":"Wajir","Status":"DivHq","Population":0,"Type":"Other","PROVINCE":"North Eastern"}},
{"type":"Feature","geometry":{"type":"Point","coordinates":[39.56817579362219,2.4941627160498774]},"properties":{"FID_1":5580,"OBJECTID":6217,"NAME":"ELDAS","DISTRICT":"Wajir","Status":"DivHq","Population":2575,"Type":"Other","PROVINCE":"North Eastern"}},
{"type":"Feature","geometry":{"type":"Point","coordinates":[39.50246940716224,2.7920872632929]},"properties":{"FID_1":5581,"OBJECTID":6218,"NAME":"BUNA","DISTRICT":"Wajir","Status":"DivHq","Population":1709,"Type":"Other","PROVINCE":"North Eastern"}},
{"type":"Feature","geometry":{"type":"Point","coordinates":[39.05389490925516,3.524052290523243]},"properties":{"FID_1":5348,"OBJECTID":4546,"NAME":"MOYALE","DISTRICT":"Moyale","Status":"DistHq","Population":12855,"Type":"Other","PROVINCE":"Eastern"}},
{"type":"Feature","geometry":{"type":"Point","coordinates":[38.545464508064114,3.6150561622786084]},"properties":{"FID_1":5351,"OBJECTID":4549,"NAME":"URAN","DISTRICT":"Moyale","Status":"DivHq","Population":0,"Type":"Other","PROVINCE":"Eastern"}},
{"type":"Feature","geometry":{"type":"Point","coordinates":[35.202192680835324,1.3071619987887373]},"properties":{"FID_1":3070,"OBJECTID":5944,"NAME":"CHEPARERIA","DISTRICT":"West Pokot","Status":"DivHq","Population":18470,"Type":"Town Council","PROVINCE":"Rift Valley"}},
{"type":"Feature","geometry":{"type":"Point","coordinates":[35.46844684685546,1.4924612312821601]},"properties":{"FID_1":3075,"OBJECTID":5949,"NAME":"SIGOR","DISTRICT":"West Pokot","Status":"DivHq","Population":0,"Type":"Other","PROVINCE":"Rift Valley"}},
{"type":"Feature","geometry":{"type":"Point","coordinates":[35.20517221296709,2.012226565669558]},"properties":{"FID_1":3084,"OBJECTID":5958,"NAME":"KASEI","DISTRICT":"West Pokot","Status":"DivHq","Population":0,"Type":"Other","PROVINCE":"Rift Valley"}},
{"type":"Feature","geometry":{"type":"Point","coordinates":[35.00896408129376,1.4795304237887419]},"properties":{"FID_1":3130,"OBJECTID":6004,"NAME":"KONGELAI","DISTRICT":"West Pokot","Status":"DivHq","Population":0,"Type":"Other","PROVINCE":"Rift Valley"}},
{"type":"Feature","geometry":{"type":"Point","coordinates":[35.01051398553613,1.4843706633911729]},"properties":{"FID_1":3131,"OBJECTID":6005,"NAME":"KACHELIBA","DISTRICT":"West Pokot","Status":"DivHq","Population":0,"Type":"Other","PROVINCE":"Rift Valley"}},
{"type":"Feature","geometry":{"type":"Point","coordinates":[35.01717325237236,2.257778378469594]},"properties":{"FID_1":3136,"OBJECTID":6010,"NAME":"ALALE","DISTRICT":"West Pokot","Status":"DivHq","Population":0,"Type":"Other","PROVINCE":"Rift Valley"}},
{"type":"Feature","geometry":{"type":"Point","coordinates":[36.78728887940581,1.7854362181088086]},"properties":{"FID_1":5370,"OBJECTID":4568,"NAME":"BARAGOI","DISTRICT":"Samburu","Status":"DivHq","Population":4345,"Type":"Other","PROVINCE":"Rift Valley"}},
{"type":"Feature","geometry":{"type":"Point","coordinates":[37.323067656175446,0.9809963711500426]},"properties":{"FID_1":5402,"OBJECTID":4600,"NAME":"WAMBA","DISTRICT":"Samburu","Status":"DivHq","Population":3950,"Type":"Other","PROVINCE":"Rift Valley"}},
{"type":"Feature","geometry":{"type":"Point","coordinates":[38.51335805604539,0.5297237467066546]},"properties":{"FID_1":1693,"OBJECTID":3789,"NAME":"GAR-BATULA","DISTRICT":"Isiolo","Status":"DivHq","Population":1991,"Type":"Other","PROVINCE":"Eastern"}},
{"type":"Feature","geometry":{"type":"Point","coordinates":[38.20633600212907,0.3214830973496443]},"properties":{"FID_1":1695,"OBJECTID":3791,"NAME":"KINNA","DISTRICT":"Isiolo","Status":"DivHq","Population":4122,"Type":"Other","PROVINCE":"Eastern"}},
{"type":"Feature","geometry":{"type":"Point","coordinates":[39.17106965818259,0.7325541924316001]},"properties":{"FID_1":1703,"OBJECTID":3799,"NAME":"MODOGASHE","DISTRICT":"Isiolo","Status":"DivHq","Population":4148,"Type":"Other","PROVINCE":"Eastern"}},
{"type":"Feature","geometry":{"type":"Point","coordinates":[39.104313440442716,1.1350046299114653]},"properties":{"FID_1":1704,"OBJECTID":3800,"NAME":"SERICHO","DISTRICT":"Isiolo","Status":"DivHq","Population":0,"Type":"Other","PROVINCE":"Eastern"}},
{"type":"Feature","geometry":{"type":"Point","coordinates":[38.661989243811846,1.0625608288868158]},"properties":{"FID_1":1713,"OBJECTID":3809,"NAME":"MERTI","DISTRICT":"Isiolo","Status":"DivHq","Population":3446,"Type":"Other","PROVINCE":"Eastern"}},
{"type":"Feature","geometry":{"type":"Point","coordinates":[39.426914523367486,1.5335048271390783]},"properties":{"FID_1":1719,"OBJECTID":3815,"NAME":"HADADO","DISTRICT":"Isiolo","Status":"DivHq","Population":0,"Type":"Other","PROVINCE":"Eastern"}},
{"type":"Feature","geometry":{"type":"Point","coordinates":[38.661309402320775,0.5064725814348069]},"properties":{"FID_1":5586,"OBJECTID":6223,"NAME":"BENANE","DISTRICT":"Isiolo","Status":"DivHq","Population":0,"Type":"Other","PROVINCE":"Eastern"}},
{"type":"Feature","geometry":{"type":"Point","coordinates":[35.97899691892618,0.47225051813703117]},"properties":{"FID_1":5222,"OBJECTID":4418,"NAME":"MARIGAT","DISTRICT":"Baringo","Status":"DivHq","Population":4738,"Type":"Other","PROVINCE":"Rift Valley"}},
{"type":"Feature","geometry":{"type":"Point","coordinates":[36.01450471563642,0.949714483465623]},"properties":{"FID_1":5225,"OBJECTID":4421,"NAME":"NGINYANG","DISTRICT":"Baringo","Status":"DivHq","Population":0,"Type":"Other","PROVINCE":"Rift Valley"}},
{"type":"Feature","geometry":{"type":"Point","coordinates":[36.284578829026216,0.8024171511248697]},"properties":{"FID_1":5229,"OBJECTID":4426,"NAME":"TANGULBEI","DISTRICT":"Baringo","Status":"DivHq","Population":586,"Type":"Other","PROVINCE":"Rift Valley"}},
{"type":"Feature","geometry":{"type":"Point","coordinates":[36.248990946484525,0.6362687957603004]},"properties":{"FID_1":5233,"OBJECTID":4431,"NAME":"MUKUTANI","DISTRICT":"Baringo","Status":"DivHq","Population":0,"Type":"Other","PROVINCE":"Rift Valley"}},
{"type":"Feature","geometry":{"type":"Point","coordinates":[36.19221434114869,0.311472409621567]},"properties":{"FID_1":5249,"OBJECTID":4447,"NAME":"MOCHONGOI","DISTRICT":"Baringo","Status":"DivHq","Population":0,"Type":"Other","PROVINCE":"Rift Valley"}},
{"type":"Feature","geometry":{"type":"Point","coordinates":[35.7543900362229,1.2194878212356093]},"properties":{"FID_1":5275,"OBJECTID":4473,"NAME":"KOLLOWA","DISTRICT":"Baringo","Status":"DivHq","Population":0,"Type":"Other","PROVINCE":"Rift Valley"}},
{"type":"Feature","geometry":{"type":"Point","coordinates":[35.80029749926435,0.31394250629883647]},"properties":{"FID_1":5281,"OBJECTID":4479,"NAME":"TENGES","DISTRICT":"Baringo","Status":"DivHq","Population":0,"Type":"Other","PROVINCE":"Rift Valley"}},
{"type":"Feature","geometry":{"type":"Point","coordinates":[35.79422780358823,0.632328528449027]},"properties":{"FID_1":5287,"OBJECTID":4485,"NAME":"KABARTONJO","DISTRICT":"Baringo","Status":"DivHq","Population":384,"Type":"Other","PROVINCE":"Rift Valley"}},
{"type":"Feature","geometry":{"type":"Point","coordinates":[35.829705696758005,0.7347736626567123]},"properties":{"FID_1":5290,"OBJECTID":4488,"NAME":"KIPSARAMAN","DISTRICT":"Baringo","Status":"DivHq","Population":0,"Type":"Other","PROVINCE":"Rift Valley"}},
{"type":"Feature","geometry":{"type":"Point","coordinates":[35.81017682016919,0.8386488733829833]},"properties":{"FID_1":5292,"OBJECTID":4490,"NAME":"BARTABWA","DISTRICT":"Baringo","Status":"DivHq","Population":0,"Type":"Other","PROVINCE":"Rift Valley"}},
{"type":"Feature","geometry":{"type":"Point","coordinates":[35.69997337933838,0.7062222217381228]},"properties":{"FID_1":5301,"OBJECTID":4499,"NAME":"BARWESSA","DISTRICT":"Baringo","Status":"DivHq","Population":0,"Type":"Other","PROVINCE":"Rift Valley"}},
{"type":"Feature","geometry":{"type":"Point","coordinates":[35.660645734634414,0.4980717852276467]},"properties":{"FID_1":5308,"OBJECTID":4506,"NAME":"SALAWA","DISTRICT":"Baringo","Status":"DivHq","Population":0,"Type":"Other","PROVINCE":"Rift Valley"}},
{"type":"Feature","geometry":{"type":"Point","coordinates":[35.55952162713174,0.9828160021387878]},"properties":{"FID_1":1293,"OBJECTID":3379,"NAME":"KAPSOWAR","DISTRICT":"Marakwet","Status":"DistHq","Population":0,"Type":"Other","PROVINCE":"Rift Valley"}},
{"type":"Feature","geometry":{"type":"Point","coordinates":[35.65588587141729,1.2055471194227598]},"properties":{"FID_1":3533,"OBJECTID":3361,"NAME":"TOT","DISTRICT":"Marakwet","Status":"DivHq","Population":0,"Type":"Other","PROVINCE":"Rift Valley"}},
{"type":"Feature","geometry":{"type":"Point","coordinates":[35.321025720850535,1.0413488532739434]},"properties":{"FID_1":3538,"OBJECTID":3367,"NAME":"KAPCHEROP","DISTRICT":"Marakwet","Status":"DivHq","Population":0,"Type":"Other","PROVINCE":"Rift Valley"}},
{"type":"Feature","geometry":{"type":"Point","coordinates":[35.47762642719018,1.1501443168693304]},"properties":{"FID_1":3539,"OBJECTID":3369,"NAME":"KAPYEGO","DISTRICT":"Marakwet","Status":"DivHq","Population":0,"Type":"Other","PROVINCE":"Rift Valley"}},
{"type":"Feature","geometry":{"type":"Point","coordinates":[34.856103255075915,1.07620047610088]},"properties":{"FID_1":2892,"OBJECTID":5765,"NAME":"ENDEBES","DISTRICT":"Trans Nzoia","Status":"DivHq","Population":0,"Type":"Other","PROVINCE":"Rift Valley"}},
{"type":"Feature","geometry":{"type":"Point","coordinates":[35.12337743147743,0.9904062884281417]},"properties":{"FID_1":2896,"OBJECTID":5769,"NAME":"KAPLAMAI","DISTRICT":"Trans Nzoia","Status":"DivHq","Population":0,"Type":"Other","PROVINCE":"Rift Valley"}},
{"type":"Feature","geometry":{"type":"Point","coordinates":[34.99935475134455,1.165894950199935]},"properties":{"FID_1":2899,"OBJECTID":5772,"NAME":"KWANZA","DISTRICT":"Trans Nzoia","Status":"DivHq","Population":0,"Type":"Other","PROVINCE":"Rift Valley"}},
{"type":"Feature","geometry":{"type":"Point","coordinates":[34.92328933507972,0.8959115516684772]},"properties":{"FID_1":2908,"OBJECTID":5781,"NAME":"KIMININI","DISTRICT":"Trans Nzoia","Status":"DivHq","Population":0,"Type":"Other","PROVINCE":"Rift Valley"}},
{"type":"Feature","geometry":{"type":"Point","coordinates":[34.83740441903063,0.9398237067373878]},"properties":{"FID_1":2927,"OBJECTID":5800,"NAME":"SABOTI","DISTRICT":"Trans Nzoia","Status":"DivHq","Population":0,"Type":"Other","PROVINCE":"Rift Valley"}},
{"type":"Feature","geometry":{"type":"Point","coordinates":[35.14276628157789,1.0154675456846747]},"properties":{"FID_1":2953,"OBJECTID":5826,"NAME":"CHERANGANI","DISTRICT":"Trans Nzoia","Status":"DivHq","Population":0,"Type":"Other","PROVINCE":"Rift Valley"}},
{"type":"Feature","geometry":{"type":"Point","coordinates":[34.766678622460795,0.8888011685435458]},"properties":{"FID_1":1553,"OBJECTID":3644,"NAME":"KAPTAMA","DISTRICT":"Mt Elgon","Status":"DivHq","Population":0,"Type":"Other","PROVINCE":"Western"}},
{"type":"Feature","geometry":{"type":"Point","coordinates":[34.46283669209201,0.8088771144348819]},"properties":{"FID_1":1573,"OBJECTID":3665,"NAME":"CHEPTAIS","DISTRICT":"Mt Elgon","Status":"DivHq","Population":3675,"Type":"Other","PROVINCE":"Western"}},
{"type":"Feature","geometry":{"type":"Point","coordinates":[34.591149064617625,0.8213577774562217]},"properties":{"FID_1":1584,"OBJECTID":3676,"NAME":"KAPSIRO","DISTRICT":"Mt Elgon","Status":"DivHq","Population":0,"Type":"Other","PROVINCE":"Western"}},
{"type":"Feature","geometry":{"type":"Point","coordinates":[34.714341730706195,0.8455289769606412]},"properties":{"FID_1":1586,"OBJECTID":3678,"NAME":"KAPSAKWONY","DISTRICT":"Mt Elgon","Status":"DistHq","Population":5687,"Type":"Other","PROVINCE":"Western"}},
{"type":"Feature","geometry":{"type":"Point","coordinates":[38.738814931552994,0.009447115865590659]},"properties":{"FID_1":1701,"OBJECTID":3797,"NAME":"DANYIRR","DISTRICT":"Garissa","Status":"DivHq","Population":0,"Type":"Other","PROVINCE":"North Eastern"}},
{"type":"Feature","geometry":{"type":"Point","coordinates":[41.05646023793886,-1.149743871638354]},"properties":{"FID_1":5600,"OBJECTID":6237,"NAME":"HULUGHO","DISTRICT":"Ijara","Status":"DivHq","Population":0,"Type":"Other","PROVINCE":"North Eastern"}},
{"type":"Feature","geometry":{"type":"Point","coordinates":[39.05986618681205,-0.0399554509612351]},"properties":{"FID_1":5602,"OBJECTID":6240,"NAME":"BALAMBALA","DISTRICT":"Garissa","Status":"DivHq","Population":0,"Type":"Other","PROVINCE":"North Eastern"}},
{"type":"Feature","geometry":{"type":"Point","coordinates":[40.30723374646082,0.05714957903981872]},"properties":{"FID_1":5604,"OBJECTID":6242,"NAME":"DADAAB","DISTRICT":"Garissa","Status":"DivHq","Population":4500,"Type":"Other","PROVINCE":"North Eastern"}},
{"type":"Feature","geometry":{"type":"Point","coordinates":[40.87244101855378,0.35574509524981485]},"properties":{"FID_1":5605,"OBJECTID":6243,"NAME":"LIBOI","DISTRICT":"Garissa","Status":"DivHq","Population":2540,"Type":"Other","PROVINCE":"North Eastern"}},
{"type":"Feature","geometry":{"type":"Point","coordinates":[40.513391462164805,-1.5931471979504217]},"properties":{"FID_1":5650,"OBJECTID":6290,"NAME":"IJARA","DISTRICT":"Ijara","Status":"DistHq","Population":1263,"Type":"Other","PROVINCE":"North Eastern"}},
{"type":"Feature","geometry":{"type":"Point","coordinates":[40.7329288645456,-1.3106822833376983]},"properties":{"FID_1":5651,"OBJECTID":6291,"NAME":"SANGAILU","DISTRICT":"Ijara","Status":"DivHq","Population":0,"Type":"Other","PROVINCE":"North Eastern"}},
{"type":"Feature","geometry":{"type":"Point","coordinates":[35.155285627873425,0.6743905460735893]},"properties":{"FID_1":4440,"OBJECTID":109,"NAME":"SOY","DISTRICT":"Uasin Gishu","Status":"DivHq","Population":523,"Type":"Other","PROVINCE":"Rift Valley"}},
{"type":"Feature","geometry":{"type":"Point","coordinates":[35.0484419298159,0.636508659218803]},"properties":{"FID_1":4453,"OBJECTID":124,"NAME":"TURBO","DISTRICT":"Uasin Gishu","Status":"DivHq","Population":2701,"Type":"Other","PROVINCE":"Rift Valley"}},
{"type":"Feature","geometry":{"type":"Point","coordinates":[35.38349209876072,0.8204978907464889]},"properties":{"FID_1":4457,"OBJECTID":129,"NAME":"MOI-BEN","DISTRICT":"Uasin Gishu","Status":"DivHq","Population":0,"Type":"Other","PROVINCE":"Rift Valley"}},
{"type":"Feature","geometry":{"type":"Point","coordinates":[35.32554559321564,0.2967915937248618]},"properties":{"FID_1":4472,"OBJECTID":145,"NAME":"KESSES","DISTRICT":"Uasin Gishu","Status":"DivHq","Population":0,"Type":"Other","PROVINCE":"Rift Valley"}},
{"type":"Feature","geometry":{"type":"Point","coordinates":[35.52202393629408,0.16654502166601556]},"properties":{"FID_1":4473,"OBJECTID":146,"NAME":"AINABKOI","DISTRICT":"Uasin Gishu","Status":"DivHq","Population":0,"Type":"Other","PROVINCE":"Rift Valley"}},
{"type":"Feature","geometry":{"type":"Point","coordinates":[34.80461640468967,0.5652350329748856]},"properties":{"FID_1":3867,"OBJECTID":1072,"NAME":"MATETE","DISTRICT":"Lugari","Status":"DivHq","Population":0,"Type":"Other","PROVINCE":"Western"}},
{"type":"Feature","geometry":{"type":"Point","coordinates":[34.87570219287612,0.6541595142753219]},"properties":{"FID_1":3868,"OBJECTID":1073,"NAME":"LUGARI","DISTRICT":"Lugari","Status":"DivHq","Population":2769,"Type":"Town Council","PROVINCE":"Western"}},
{"type":"Feature","geometry":{"type":"Point","coordinates":[34.97337639405958,0.6376986909191864]},"properties":{"FID_1":3869,"OBJECTID":1074,"NAME":"LUMAKANDA","DISTRICT":"Lugari","Status":"DistHq","Population":11386,"Type":"Other","PROVINCE":"Western"}},
{"type":"Feature","geometry":{"type":"Point","coordinates":[34.790237271089445,0.7017218519908965]},"properties":{"FID_1":1403,"OBJECTID":3490,"NAME":"NDIVISI","DISTRICT":"Bungoma","Status":"DivHq","Population":0,"Type":"Other","PROVINCE":"Western"}},
{"type":"Feature","geometry":{"type":"Point","coordinates":[34.44679768622224,0.5559745048360611]},"properties":{"FID_1":1404,"OBJECTID":3491,"NAME":"BUMULA","DISTRICT":"Bungoma","Status":"DivHq","Population":0,"Type":"Other","PROVINCE":"Western"}},
{"type":"Feature","geometry":{"type":"Point","coordinates":[34.77116839309291,0.6100472638224468]},"properties":{"FID_1":1417,"OBJECTID":3505,"NAME":"WEBUYE","DISTRICT":"Bungoma","Status":"DivHq","Population":70137,"Type":"Municipality","PROVINCE":"Western"}},
{"type":"Feature","geometry":{"type":"Point","coordinates":[34.55230139677597,0.5958665338526714]},"properties":{"FID_1":1472,"OBJECTID":3562,"NAME":"KANDUYI","DISTRICT":"Bungoma","Status":"DivHq","Population":0,"Type":"Other","PROVINCE":"Western"}},
{"type":"Feature","geometry":{"type":"Point","coordinates":[34.42084919917307,0.6824808317519552]},"properties":{"FID_1":1477,"OBJECTID":3567,"NAME":"MALAKISI","DISTRICT":"Bungoma","Status":"DivHq","Population":12102,"Type":"Town Council","PROVINCE":"Western"}},
{"type":"Feature","geometry":{"type":"Point","coordinates":[35.03776255835414,0.7893462425474576]},"properties":{"FID_1":1514,"OBJECTID":3605,"NAME":"BRIDGADIER","DISTRICT":"Bungoma","Status":"DivHq","Population":0,"Type":"Other","PROVINCE":"Western"}},
{"type":"Feature","geometry":{"type":"Point","coordinates":[34.504264228542965,0.7580146114901981]},"properties":{"FID_1":1525,"OBJECTID":3616,"NAME":"SIRISIA","DISTRICT":"Bungoma","Status":"DivHq","Population":23520,"Type":"Town Council","PROVINCE":"Western"}},
{"type":"Feature","geometry":{"type":"Point","coordinates":[34.721031355752864,0.7857160159515209]},"properties":{"FID_1":1541,"OBJECTID":3632,"NAME":"KIMILILI","DISTRICT":"Bungoma","Status":"DivHq","Population":71481,"Type":"Town Council","PROVINCE":"Western"}},
{"type":"Feature","geometry":{"type":"Point","coordinates":[34.58043970522195,0.7379336246183064]},"properties":{"FID_1":1543,"OBJECTID":3634,"NAME":"CHWELE","DISTRICT":"Bungoma","Status":"DivHq","Population":3018,"Type":"Other","PROVINCE":"Western"}},
{"type":"Feature","geometry":{"type":"Point","coordinates":[36.36334426908172,0.03754854052706647]},"properties":{"FID_1":3660,"OBJECTID":600,"NAME":"NYAHURURU","DISTRICT":"Laikipia","Status":"DivHq","Population":37412,"Type":"Municipality","PROVINCE":"Rift Valley"}},
{"type":"Feature","geometry":{"type":"Point","coordinates":[36.86441474233982,-0.13093008845285833]},"properties":{"FID_1":4223,"OBJECTID":2051,"NAME":"LAMURIA","DISTRICT":"Laikipia","Status":"DivHq","Population":0,"Type":"Other","PROVINCE":"Rift Valley"}},
{"type":"Feature","geometry":{"type":"Point","coordinates":[36.535544100549174,0.26269997074213997]},"properties":{"FID_1":4229,"OBJECTID":2058,"NAME":"RUMURUTI","DISTRICT":"Laikipia","Status":"DivHq","Population":24634,"Type":"Town Council","PROVINCE":"Rift Valley"}},
{"type":"Feature","geometry":{"type":"Point","coordinates":[35.52145393918551,0.5980467751737905]},"properties":{"FID_1":1796,"OBJECTID":2774,"NAME":"TAMBACH","DISTRICT":"Keiyo","Status":"DivHq","Population":0,"Type":"Other","PROVINCE":"Rift Valley"}},
{"type":"Feature","geometry":{"type":"Point","coordinates":[35.54071282574324,0.379655794506308]},"properties":{"FID_1":1799,"OBJECTID":2777,"NAME":"CHEPKORIO","DISTRICT":"Keiyo","Status":"DivHq","Population":0,"Type":"Other","PROVINCE":"Rift Valley"}},
{"type":"Feature","geometry":{"type":"Point","coordinates":[34.36109273355645,0.6981215849776542]},"properties":{"FID_1":1623,"OBJECTID":3716,"NAME":"ANG`URAI","DISTRICT":"Teso","Status":"DivHq","Population":0,"Type":"Other","PROVINCE":"Western"}},
{"type":"Feature","geometry":{"type":"Point","coordinates":[34.133076347491674,0.4999816763763994]},"properties":{"FID_1":1641,"OBJECTID":3734,"NAME":"ALUPE","DISTRICT":"Teso","Status":"DivHq","Population":0,"Type":"Other","PROVINCE":"Western"}},
{"type":"Feature","geometry":{"type":"Point","coordinates":[34.33014459729327,0.6308382327841103]},"properties":{"FID_1":1655,"OBJECTID":3748,"NAME":"AMAGORO","DISTRICT":"Teso","Status":"DistHq","Population":0,"Type":"Other","PROVINCE":"Western"}},
{"type":"Feature","geometry":{"type":"Point","coordinates":[34.26856827630806,0.5613547715915286]},"properties":{"FID_1":1663,"OBJECTID":3757,"NAME":"AMUKURA","DISTRICT":"Teso","Status":"DivHq","Population":0,"Type":"Other","PROVINCE":"Western"}},
{"type":"Feature","geometry":{"type":"Point","coordinates":[37.939851629736125,0.23550867995369704]},"properties":{"FID_1":4116,"OBJECTID":1860,"NAME":"MAUA","DISTRICT":"Meru North","Status":"DistHq","Population":15475,"Type":"Town Council","PROVINCE":"Eastern"}},
{"type":"Feature","geometry":{"type":"Point","coordinates":[37.93581185736305,0.34160410343997105]},"properties":{"FID_1":4133,"OBJECTID":1877,"NAME":"LAARE","DISTRICT":"Meru North","Status":"DivHq","Population":2141,"Type":"Other","PROVINCE":"Eastern"}},
{"type":"Feature","geometry":{"type":"Point","coordinates":[37.97971927373719,0.3872464314598625]},"properties":{"FID_1":4134,"OBJECTID":1878,"NAME":"MUTUATI","DISTRICT":"Meru North","Status":"DivHq","Population":0,"Type":"Other","PROVINCE":"Eastern"}},
{"type":"Feature","geometry":{"type":"Point","coordinates":[34.251069304723146,0.4512292619819386]},"properties":{"FID_1":537,"OBJECTID":1599,"NAME":"NAMBALE","DISTRICT":"Busia","Status":"DivHq","Population":25030,"Type":"Town Council","PROVINCE":"Western"}},
{"type":"Feature","geometry":{"type":"Point","coordinates":[34.3373642321049,0.34398391360338737]},"properties":{"FID_1":542,"OBJECTID":1604,"NAME":"BUTULA","DISTRICT":"Busia","Status":"DivHq","Population":0,"Type":"Other","PROVINCE":"Western"}},
{"type":"Feature","geometry":{"type":"Point","coordinates":[34.2002623605157,0.30680202935782597]},"properties":{"FID_1":544,"OBJECTID":1608,"NAME":"BUMALA","DISTRICT":"Busia","Status":"DivHq","Population":19791,"Type":"Other","PROVINCE":"Western"}},
{"type":"Feature","geometry":{"type":"Point","coordinates":[34.11712732021977,0.28112073655432496]},"properties":{"FID_1":592,"OBJECTID":1657,"NAME":"FUNYULA","DISTRICT":"Busia","Status":"DivHq","Population":29064,"Type":"Town Council","PROVINCE":"Western"}},
{"type":"Feature","geometry":{"type":"Point","coordinates":[33.97746563861039,0.09934159329909431]},"properties":{"FID_1":599,"OBJECTID":1666,"NAME":"PORT VICTORIA","DISTRICT":"Busia","Status":"DivHq","Population":23009,"Type":"Town Council","PROVINCE":"Western"}},
{"type":"Feature","geometry":{"type":"Point","coordinates":[34.81499584977503,0.22894815883490094]},"properties":{"FID_1":5045,"OBJECTID":4237,"NAME":"SHINYALU","DISTRICT":"Kakamega","Status":"DivHq","Population":0,"Type":"Other","PROVINCE":"Western"}},
{"type":"Feature","geometry":{"type":"Point","coordinates":[34.96214710129901,0.24749910476628534]},"properties":{"FID_1":5048,"OBJECTID":4240,"NAME":"ILEHO","DISTRICT":"Kakamega","Status":"DivHq","Population":0,"Type":"Other","PROVINCE":"Western"}},
{"type":"Feature","geometry":{"type":"Point","coordinates":[34.85290355945804,0.4483991690080992]},"properties":{"FID_1":5081,"OBJECTID":4273,"NAME":"MALAVA","DISTRICT":"Kakamega","Status":"DivHq","Population":24248,"Type":"Town Council","PROVINCE":"Western"}},
{"type":"Feature","geometry":{"type":"Point","coordinates":[34.680973788627085,0.4177276376604213]},"properties":{"FID_1":5121,"OBJECTID":4314,"NAME":"NAVAKHOLO","DISTRICT":"Kakamega","Status":"DivHq","Population":0,"Type":"Other","PROVINCE":"Western"}},
{"type":"Feature","geometry":{"type":"Point","coordinates":[35.18221407177599,0.10742203254779895]},"properties":{"FID_1":2750,"OBJECTID":5620,"NAME":"NANDI HILLS","DISTRICT":"NandiSouth","Status":"DistHq","Population":77514,"Type":"Town Council","PROVINCE":"Rift Valley"}},
{"type":"Feature","geometry":{"type":"Point","coordinates":[35.0707206808269,0.07755054521893616]},"properties":{"FID_1":2753,"OBJECTID":5623,"NAME":"KAPTUMO","DISTRICT":"Nandi","Status":"DivHq","Population":0,"Type":"Other","PROVINCE":"Rift Valley"}},
{"type":"Feature","geometry":{"type":"Point","coordinates":[35.307496656964204,0.008017010714738823]},"properties":{"FID_1":2803,"OBJECTID":5673,"NAME":"MARABA","DISTRICT":"Nandi","Status":"DivHq","Population":0,"Type":"Other","PROVINCE":"Rift Valley"}},
{"type":"Feature","geometry":{"type":"Point","coordinates":[35.14368634648598,0.27357041314846425]},"properties":{"FID_1":5140,"OBJECTID":4334,"NAME":"KOSIRAI","DISTRICT":"Nandi","Status":"DivHq","Population":0,"Type":"Other","PROVINCE":"Rift Valley"}},
{"type":"Feature","geometry":{"type":"Point","coordinates":[35.22999122323266,0.21296737870829738]},"properties":{"FID_1":5163,"OBJECTID":4357,"NAME":"KILIBWONI","DISTRICT":"Nandi","Status":"DivHq","Population":0,"Type":"Other","PROVINCE":"Rift Valley"}},
{"type":"Feature","geometry":{"type":"Point","coordinates":[35.104458655937904,0.48015080771401325]},"properties":{"FID_1":5175,"OBJECTID":4369,"NAME":"KIPKAREN MZEE","DISTRICT":"Nandi","Status":"DivHq","Population":0,"Type":"Other","PROVINCE":"Rift Valley"}},
{"type":"Feature","geometry":{"type":"Point","coordinates":[35.08587976009071,0.4058870603906912]},"properties":{"FID_1":5177,"OBJECTID":4371,"NAME":"KABIYET","DISTRICT":"Nandi","Status":"DivHq","Population":1015,"Type":"Other","PROVINCE":"Rift Valley"}},
{"type":"Feature","geometry":{"type":"Point","coordinates":[34.499224581182446,0.2210377483187921]},"properties":{"FID_1":2820,"OBJECTID":5690,"NAME":"BUTERE","DISTRICT":"Butere","Status":"DistHq","Population":9771,"Type":"Other","PROVINCE":"Western"}},
{"type":"Feature","geometry":{"type":"Point","coordinates":[34.561520902808674,0.1736353655216137]},"properties":{"FID_1":2823,"OBJECTID":5693,"NAME":"IKOLOMANI","DISTRICT":"Kakamega","Status":"DivHq","Population":0,"Type":"Other","PROVINCE":"Western"}},
{"type":"Feature","geometry":{"type":"Point","coordinates":[34.593798961659324,0.17352535705243027]},"properties":{"FID_1":2824,"OBJECTID":5694,"NAME":"KWISERO","DISTRICT":"Butere","Status":"DivHq","Population":0,"Type":"Other","PROVINCE":"Western"}},
{"type":"Feature","geometry":{"type":"Point","coordinates":[34.488475231060576,0.33704355775475664]},"properties":{"FID_1":2827,"OBJECTID":5698,"NAME":"MUMIAS","DISTRICT":"Butere","Status":"DivHq","Population":105456,"Type":"Town Council","PROVINCE":"Western"}},
{"type":"Feature","geometry":{"type":"Point","coordinates":[34.47305613528851,0.3963465257285357]},"properties":{"FID_1":2872,"OBJECTID":5745,"NAME":"MATUNGU","DISTRICT":"Butere","Status":"DivHq","Population":0,"Type":"Other","PROVINCE":"Western"}},
{"type":"Feature","geometry":{"type":"Point","coordinates":[35.823296110306394,0.02177774604282376]},"properties":{"FID_1":3892,"OBJECTID":1097,"NAME":"ESAGERI","DISTRICT":"Koibatek","Status":"DivHq","Population":0,"Type":"Other","PROVINCE":"Rift Valley"}},
{"type":"Feature","geometry":{"type":"Point","coordinates":[35.72628187771539,0.051799249600028394]},"properties":{"FID_1":3893,"OBJECTID":1098,"NAME":"ELDAMA~RAVINE","DISTRICT":"Koibatek","Status":"DistHq","Population":32193,"Type":"Town Council","PROVINCE":"Rift Valley"}},
{"type":"Feature","geometry":{"type":"Point","coordinates":[35.59907938070029,0.1267330229669647]},"properties":{"FID_1":3894,"OBJECTID":1099,"NAME":"TORONGO","DISTRICT":"Koibatek","Status":"DivHq","Population":0,"Type":"Other","PROVINCE":"Rift Valley"}},
{"type":"Feature","geometry":{"type":"Point","coordinates":[35.81702648331758,0.1671650893747619]},"properties":{"FID_1":3915,"OBJECTID":1120,"NAME":"KIMNGOROM","DISTRICT":"Koibatek","Status":"DivHq","Population":0,"Type":"Other","PROVINCE":"Rift Valley"}},
{"type":"Feature","geometry":{"type":"Point","coordinates":[35.963177857829955,-0.013664058804891301]},"properties":{"FID_1":3924,"OBJECTID":1129,"NAME":"MOGOTIO","DISTRICT":"Koibatek","Status":"DivHq","Population":3816,"Type":"Other","PROVINCE":"Rift Valley"}},
{"type":"Feature","geometry":{"type":"Point","coordinates":[35.54535259254585,0.06564992568711096]},"properties":{"FID_1":3958,"OBJECTID":1164,"NAME":"TIMBOROA","DISTRICT":"Koibatek","Status":"DivHq","Population":3038,"Type":"Other","PROVINCE":"Rift Valley"}},
{"type":"Feature","geometry":{"type":"Point","coordinates":[35.887542314397265,0.14416390654322178]},"properties":{"FID_1":3970,"OBJECTID":1177,"NAME":"EMINING","DISTRICT":"Koibatek","Status":"DivHq","Population":449,"Type":"Other","PROVINCE":"Rift Valley"}},
{"type":"Feature","geometry":{"type":"Point","coordinates":[36.09676998644232,0.018997560475797582]},"properties":{"FID_1":3971,"OBJECTID":1178,"NAME":"KISANANA","DISTRICT":"Koibatek","Status":"DivHq","Population":0,"Type":"Other","PROVINCE":"Rift Valley"}},
{"type":"Feature","geometry":{"type":"Point","coordinates":[37.24057262703734,0.08834112104577098]},"properties":{"FID_1":811,"OBJECTID":1981,"NAME":"TIMAU","DISTRICT":"Meru Central","Status":"DivHq","Population":1564,"Type":"Other","PROVINCE":"Eastern"}},
{"type":"Feature","geometry":{"type":"Point","coordinates":[37.67890691298144,-0.18718297760570196]},"properties":{"FID_1":2307,"OBJECTID":3144,"NAME":"IGOJI","DISTRICT":"Meru Central","Status":"DivHq","Population":0,"Type":"Other","PROVINCE":"Eastern"}},
{"type":"Feature","geometry":{"type":"Point","coordinates":[34.437108264315185,0.05449934949195117]},"properties":{"FID_1":4507,"OBJECTID":181,"NAME":"WAGAI","DISTRICT":"Siaya","Status":"DivHq","Population":0,"Type":"Other","PROVINCE":"Nyanza"}},
{"type":"Feature","geometry":{"type":"Point","coordinates":[34.295486725743274,0.18405584628856772]},"properties":{"FID_1":4585,"OBJECTID":263,"NAME":"UGUNJA","DISTRICT":"Siaya","Status":"DivHq","Population":29513,"Type":"Town Council","PROVINCE":"Nyanza"}},
{"type":"Feature","geometry":{"type":"Point","coordinates":[34.535392439656064,0.09369135189848524]},"properties":{"FID_1":4594,"OBJECTID":273,"NAME":"YALA","DISTRICT":"Siaya","Status":"DivHq","Population":40125,"Type":"Town Council","PROVINCE":"Nyanza"}},
{"type":"Feature","geometry":{"type":"Point","coordinates":[34.13821608196953,0.11378232284820285]},"properties":{"FID_1":4618,"OBJECTID":301,"NAME":"URANGA","DISTRICT":"Siaya","Status":"DivHq","Population":0,"Type":"Other","PROVINCE":"Nyanza"}},
{"type":"Feature","geometry":{"type":"Point","coordinates":[34.2338403686504,0.08939108634701481]},"properties":{"FID_1":4622,"OBJECTID":306,"NAME":"BORO","DISTRICT":"Siaya","Status":"DivHq","Population":0,"Type":"Other","PROVINCE":"Nyanza"}},
{"type":"Feature","geometry":{"type":"Point","coordinates":[35.99524594507885,-0.6304055749001076]},"properties":{"FID_1":3524,"OBJECTID":3352,"NAME":"MAU NAROK","DISTRICT":"Nakuru","Status":"DivHq","Population":3444,"Type":"Other","PROVINCE":"Rift Valley"}},
{"type":"Feature","geometry":{"type":"Point","coordinates":[35.68725412320602,-0.5834231030242888]},"properties":{"FID_1":3674,"OBJECTID":620,"NAME":"OLENGURUONE","DISTRICT":"Nakuru","Status":"DivHq","Population":1362,"Type":"Other","PROVINCE":"Rift Valley"}},
{"type":"Feature","geometry":{"type":"Point","coordinates":[36.14404722238105,-0.1491009795377782]},"properties":{"FID_1":3733,"OBJECTID":682,"NAME":"BAHATI","DISTRICT":"Nakuru","Status":"DivHq","Population":0,"Type":"Other","PROVINCE":"Rift Valley"}},
{"type":"Feature","geometry":{"type":"Point","coordinates":[36.21523298060239,0.19634659722731246]},"properties":{"FID_1":3746,"OBJECTID":695,"NAME":"MBOGOINI","DISTRICT":"Nakuru","Status":"DivHq","Population":0,"Type":"Other","PROVINCE":"Rift Valley"}},
{"type":"Feature","geometry":{"type":"Point","coordinates":[35.72794177469802,-0.2422157052799691]},"properties":{"FID_1":3774,"OBJECTID":724,"NAME":"MOLO","DISTRICT":"Nakuru","Status":"DivHq","Population":96158,"Type":"Town Council","PROVINCE":"Rift Valley"}},
{"type":"Feature","geometry":{"type":"Point","coordinates":[35.68053454708096,-0.17117206946728822]},"properties":{"FID_1":3775,"OBJECTID":725,"NAME":"MAU~SUMMIT","DISTRICT":"Nakuru","Status":"DivHq","Population":0,"Type":"Other","PROVINCE":"Rift Valley"}},
{"type":"Feature","geometry":{"type":"Point","coordinates":[35.69088394469788,-0.42415494349373917]},"properties":{"FID_1":3778,"OBJECTID":728,"NAME":"KERINGET","DISTRICT":"Nakuru","Status":"DivHq","Population":1007,"Type":"Other","PROVINCE":"Rift Valley"}},
{"type":"Feature","geometry":{"type":"Point","coordinates":[35.862523816661955,-0.17276215759358207]},"properties":{"FID_1":3790,"OBJECTID":740,"NAME":"RONGAI","DISTRICT":"Nakuru","Status":"DivHq","Population":1499,"Type":"Other","PROVINCE":"Rift Valley"}},
{"type":"Feature","geometry":{"type":"Point","coordinates":[35.53076343937227,-0.2982085374819077]},"properties":{"FID_1":3797,"OBJECTID":747,"NAME":"KURESOI","DISTRICT":"Nakuru","Status":"DivHq","Population":0,"Type":"Other","PROVINCE":"Rift Valley"}},
{"type":"Feature","geometry":{"type":"Point","coordinates":[35.9749471516692,-0.5076492484330167]},"properties":{"FID_1":3830,"OBJECTID":784,"NAME":"MAUCHE","DISTRICT":"Nakuru","Status":"DivHq","Population":0,"Type":"Other","PROVINCE":"Rift Valley"}},
{"type":"Feature","geometry":{"type":"Point","coordinates":[36.323336601349325,-0.49708877727897993]},"properties":{"FID_1":3831,"OBJECTID":786,"NAME":"GILGIL","DISTRICT":"Nakuru","Status":"DivHq","Population":20362,"Type":"Other","PROVINCE":"Rift Valley"}},
{"type":"Feature","geometry":{"type":"Point","coordinates":[35.67506490998264,-0.09453818874589245]},"properties":{"FID_1":3834,"OBJECTID":789,"NAME":"KAMARA","DISTRICT":"Nakuru","Status":"DivHq","Population":0,"Type":"Other","PROVINCE":"Rift Valley"}},
{"type":"Feature","geometry":{"type":"Point","coordinates":[36.265910030311105,0.12911319507071492]},"properties":{"FID_1":3839,"OBJECTID":794,"NAME":"LARI","DISTRICT":"Nakuru","Status":"DivHq","Population":0,"Type":"Other","PROVINCE":"Rift Valley"}},
{"type":"Feature","geometry":{"type":"Point","coordinates":[35.94990867329065,-0.3333303544891772]},"properties":{"FID_1":3845,"OBJECTID":800,"NAME":"NJORO","DISTRICT":"Nakuru","Status":"DivHq","Population":16510,"Type":"Other","PROVINCE":"Rift Valley"}},
{"type":"Feature","geometry":{"type":"Point","coordinates":[35.81143683799731,-0.29995865314546744]},"properties":{"FID_1":3847,"OBJECTID":802,"NAME":"ELBURGON","DISTRICT":"Nakuru","Status":"DivHq","Population":23173,"Type":"Other","PROVINCE":"Rift Valley"}},
{"type":"Feature","geometry":{"type":"Point","coordinates":[36.42996024836969,-0.712169847480229]},"properties":{"FID_1":3848,"OBJECTID":803,"NAME":"NAIVASHA","DISTRICT":"Nakuru","Status":"DivHq","Population":158678,"Type":"Municipality","PROVINCE":"Rift Valley"}},
{"type":"Feature","geometry":{"type":"Point","coordinates":[36.58417111174222,-0.979243687951159]},"properties":{"FID_1":3850,"OBJECTID":805,"NAME":"MAI MAHIU","DISTRICT":"Nakuru","Status":"DivHq","Population":0,"Type":"Other","PROVINCE":"Rift Valley"}},
{"type":"Feature","geometry":{"type":"Point","coordinates":[34.787327480831955,0.12332281808431472]},"properties":{"FID_1":4359,"OBJECTID":23,"NAME":"SABATIA","DISTRICT":"Vihiga","Status":"DivHq","Population":0,"Type":"Other","PROVINCE":"Western"}},
{"type":"Feature","geometry":{"type":"Point","coordinates":[34.62603708737494,0.04026864257198118]},"properties":{"FID_1":4413,"OBJECTID":81,"NAME":"EMUHAYA","DISTRICT":"Vihiga","Status":"DivHq","Population":0,"Type":"Other","PROVINCE":"Western"}},
{"type":"Feature","geometry":{"type":"Point","coordinates":[34.58645939633985,0.026717993541701405]},"properties":{"FID_1":4422,"OBJECTID":90,"NAME":"LUANDA","DISTRICT":"Vihiga","Status":"DivHq","Population":66289,"Type":"Town Council","PROVINCE":"Western"}},
{"type":"Feature","geometry":{"type":"Point","coordinates":[36.52750461280386,-0.056686241640330856]},"properties":{"FID_1":52,"OBJECTID":460,"NAME":"NDARAGWA","DISTRICT":"Nyandarua","Status":"DivHq","Population":1101,"Type":"Other","PROVINCE":"Central"}},
{"type":"Feature","geometry":{"type":"Point","coordinates":[36.49453650165789,-0.3973836762148264]},"properties":{"FID_1":102,"OBJECTID":515,"NAME":"MIHARATI","DISTRICT":"Nyandarua","Status":"DivHq","Population":1479,"Type":"Other","PROVINCE":"Central"}},
{"type":"Feature","geometry":{"type":"Point","coordinates":[36.5750717431263,-0.6019642209573476]},"properties":{"FID_1":105,"OBJECTID":518,"NAME":"ENGINEER","DISTRICT":"Nyandarua","Status":"DivHq","Population":3292,"Type":"Other","PROVINCE":"Central"}},
{"type":"Feature","geometry":{"type":"Point","coordinates":[36.3644841832443,-0.07137699749492087]},"properties":{"FID_1":183,"OBJECTID":599,"NAME":"OL JORO OROK","DISTRICT":"Nyandarua","Status":"DistHq","Population":2223,"Type":"Other","PROVINCE":"Central"}},
{"type":"Feature","geometry":{"type":"Point","coordinates":[36.6523271820055,-0.7234404699232485]},"properties":{"FID_1":186,"OBJECTID":603,"NAME":"NJABINI","DISTRICT":"Nyandarua","Status":"DivHq","Population":4251,"Type":"Other","PROVINCE":"Central"}},
{"type":"Feature","geometry":{"type":"Point","coordinates":[37.976949437670754,-0.1544113107989415]},"properties":{"FID_1":1904,"OBJECTID":2882,"NAME":"MARIMANTI","DISTRICT":"Tharaka","Status":"DistHq","Population":0,"Type":"Other","PROVINCE":"Eastern"}},
{"type":"Feature","geometry":{"type":"Point","coordinates":[34.27393798301741,-0.09641826210548186]},"properties":{"FID_1":2467,"OBJECTID":5331,"NAME":"BONDO","DISTRICT":"Bondo","Status":"DistHq","Population":29202,"Type":"Town Council","PROVINCE":"Nyanza"}},
{"type":"Feature","geometry":{"type":"Point","coordinates":[34.32248510391812,-0.2811775804675313]},"properties":{"FID_1":2471,"OBJECTID":5335,"NAME":"MADIANY","DISTRICT":"Bondo","Status":"DivHq","Population":0,"Type":"Other","PROVINCE":"Nyanza"}},
{"type":"Feature","geometry":{"type":"Point","coordinates":[34.28383738851177,-0.383322762022267]},"properties":{"FID_1":2473,"OBJECTID":5337,"NAME":"LUANDA KOTIENO","DISTRICT":"Bondo","Status":"DivHq","Population":0,"Type":"Other","PROVINCE":"Nyanza"}},
{"type":"Feature","geometry":{"type":"Point","coordinates":[34.381201596746564,-0.0688868650285578]},"properties":{"FID_1":2481,"OBJECTID":5345,"NAME":"NDORI","DISTRICT":"Bondo","Status":"DivHq","Population":0,"Type":"Other","PROVINCE":"Nyanza"}},
{"type":"Feature","geometry":{"type":"Point","coordinates":[34.38499139072878,-0.1804925058818488]},"properties":{"FID_1":2507,"OBJECTID":5371,"NAME":"ASEMBO BAY","DISTRICT":"Bondo","Status":"DivHq","Population":0,"Type":"Other","PROVINCE":"Nyanza"}},
{"type":"Feature","geometry":{"type":"Point","coordinates":[34.09215881091942,-0.05732626492892272]},"properties":{"FID_1":2519,"OBJECTID":5383,"NAME":"USIGU","DISTRICT":"Bondo","Status":"DivHq","Population":0,"Type":"Other","PROVINCE":"Nyanza"}},
{"type":"Feature","geometry":{"type":"Point","coordinates":[34.054451055002524,-0.06377659062728372]},"properties":{"FID_1":2521,"OBJECTID":5385,"NAME":"USENGE","DISTRICT":"Bondo","Status":"DivHq","Population":5771,"Type":"Other","PROVINCE":"Nyanza"}},
{"type":"Feature","geometry":{"type":"Point","coordinates":[35.34263456489581,-0.20141358174169363]},"properties":{"FID_1":3976,"OBJECTID":1340,"NAME":"FORT TERNAN","DISTRICT":"Kericho","Status":"DivHq","Population":0,"Type":"Other","PROVINCE":"Rift Valley"}},
{"type":"Feature","geometry":{"type":"Point","coordinates":[35.46866713876123,-0.19565332079378495]},"properties":{"FID_1":3995,"OBJECTID":1360,"NAME":"KIPKELION","DISTRICT":"Kericho","Status":"DivHq","Population":26786,"Type":"Town Council","PROVINCE":"Rift Valley"}},
{"type":"Feature","geometry":{"type":"Point","coordinates":[35.27293865941514,-0.2935482874914648]},"properties":{"FID_1":4009,"OBJECTID":1374,"NAME":"AINAMOI","DISTRICT":"Kericho","Status":"DivHq","Population":0,"Type":"Other","PROVINCE":"Rift Valley"}},
{"type":"Feature","geometry":{"type":"Point","coordinates":[35.17031473623713,-0.3605016686693165]},"properties":{"FID_1":4011,"OBJECTID":1376,"NAME":"SOSIOT","DISTRICT":"Kericho","Status":"DivHq","Population":0,"Type":"Other","PROVINCE":"Rift Valley"}},
{"type":"Feature","geometry":{"type":"Point","coordinates":[35.04892194930565,-0.39549342621884676]},"properties":{"FID_1":4013,"OBJECTID":1378,"NAME":"SIGOWET","DISTRICT":"Kericho","Status":"DivHq","Population":0,"Type":"Other","PROVINCE":"Rift Valley"}},
{"type":"Feature","geometry":{"type":"Point","coordinates":[35.591609842569326,-0.16361169934158143]},"properties":{"FID_1":4026,"OBJECTID":1391,"NAME":"LONDIANI","DISTRICT":"Kericho","Status":"DivHq","Population":34184,"Type":"Town Council","PROVINCE":"Rift Valley"}},
{"type":"Feature","geometry":{"type":"Point","coordinates":[34.52467309597309,-0.10732880665081938]},"properties":{"FID_1":5421,"OBJECTID":4619,"NAME":"KOMBEWA","DISTRICT":"Kisumu","Status":"DivHq","Population":0,"Type":"Other","PROVINCE":"Nyanza"}},
{"type":"Feature","geometry":{"type":"Point","coordinates":[34.59749876450322,-0.0006534221171251613]},"properties":{"FID_1":5434,"OBJECTID":4633,"NAME":"MASENO","DISTRICT":"Kisumu","Status":"DivHq","Population":2689,"Type":"Other","PROVINCE":"Nyanza"}},
{"type":"Feature","geometry":{"type":"Point","coordinates":[36.9452199449269,-0.544601307710287]},"properties":{"FID_1":1011,"OBJECTID":2517,"NAME":"OTHAYA","DISTRICT":"Nyeri","Status":"DivHq","Population":19966,"Type":"Town Council","PROVINCE":"Central"}},
{"type":"Feature","geometry":{"type":"Point","coordinates":[37.045114085239064,-0.5583820370198468]},"properties":{"FID_1":1015,"OBJECTID":2521,"NAME":"MUKURUEINI","DISTRICT":"Nyeri","Status":"DivHq","Population":1758,"Type":"Other","PROVINCE":"Central"}},
{"type":"Feature","geometry":{"type":"Point","coordinates":[36.90348242326813,-0.3254700378017451]},"properties":{"FID_1":1152,"OBJECTID":2661,"NAME":"MWEIGA","DISTRICT":"Nyeri","Status":"DivHq","Population":0,"Type":"Other","PROVINCE":"Central"}},
{"type":"Feature","geometry":{"type":"Point","coordinates":[37.02186548876793,-0.1685820188068798]},"properties":{"FID_1":6232,"OBJECTID":2478,"NAME":"NARO MORU","DISTRICT":"Nyeri","Status":"DivHq","Population":2861,"Type":"Other","PROVINCE":"Central"}},
{"type":"Feature","geometry":{"type":"Point","coordinates":[37.123699475042585,-0.48020800806867425]},"properties":{"FID_1":6238,"OBJECTID":2484,"NAME":"KARATINA","DISTRICT":"Nyeri","Status":"DivHq","Population":126337,"Type":"Municipality","PROVINCE":"Central"}},
{"type":"Feature","geometry":{"type":"Point","coordinates":[34.91900967057864,-0.16964196283197822]},"properties":{"FID_1":3544,"OBJECTID":319,"NAME":"AHERO","DISTRICT":"Nyando","Status":"DivHq","Population":30327,"Type":"Town Council","PROVINCE":"Nyanza"}},
{"type":"Feature","geometry":{"type":"Point","coordinates":[34.934938706913776,-0.3836828545408558]},"properties":{"FID_1":3551,"OBJECTID":326,"NAME":"OBOCH","DISTRICT":"Nyando","Status":"DivHq","Population":0,"Type":"Other","PROVINCE":"Nyanza"}},
{"type":"Feature","geometry":{"type":"Point","coordinates":[34.852383644214974,-0.3154293455776048]},"properties":{"FID_1":3554,"OBJECTID":329,"NAME":"KUSA","DISTRICT":"Nyando","Status":"DivHq","Population":0,"Type":"Other","PROVINCE":"Nyanza"}},
{"type":"Feature","geometry":{"type":"Point","coordinates":[35.20064300854966,-0.15524124536644993]},"properties":{"FID_1":3592,"OBJECTID":371,"NAME":"MUHORONI","DISTRICT":"Nyando","Status":"DivHq","Population":31145,"Type":"Town Council","PROVINCE":"Nyanza"}},
{"type":"Feature","geometry":{"type":"Point","coordinates":[35.07244054969472,-0.15777140484381522]},"properties":{"FID_1":3597,"OBJECTID":377,"NAME":"AWASI","DISTRICT":"Nyando","Status":"DistHq","Population":0,"Type":"Town Council","PROVINCE":"Nyanza"}},
{"type":"Feature","geometry":{"type":"Point","coordinates":[35.007194440812896,-0.09426814904060574]},"properties":{"FID_1":3614,"OBJECTID":397,"NAME":"MASOGO","DISTRICT":"Nyando","Status":"DivHq","Population":0,"Type":"Other","PROVINCE":"Nyanza"}},
{"type":"Feature","geometry":{"type":"Point","coordinates":[34.97891614160316,-0.07042695040624306]},"properties":{"FID_1":3627,"OBJECTID":410,"NAME":"MIWANI ORIGINAL","DISTRICT":"Nyando","Status":"DivHq","Population":0,"Type":"Other","PROVINCE":"Nyanza"}},
{"type":"Feature","geometry":{"type":"Point","coordinates":[34.93575869648963,-0.3087790051113077]},"properties":{"FID_1":3649,"OBJECTID":446,"NAME":"PAP ONDITI","DISTRICT":"Nyando","Status":"DivHq","Population":0,"Type":"Other","PROVINCE":"Nyanza"}},
{"type":"Feature","geometry":{"type":"Point","coordinates":[39.015828687202195,-0.720960783890659]},"properties":{"FID_1":887,"OBJECTID":2209,"NAME":"BANGALI","DISTRICT":"Tana River","Status":"DivHq","Population":0,"Type":"Other","PROVINCE":"Coast"}},
{"type":"Feature","geometry":{"type":"Point","coordinates":[39.55728722796786,-0.2953587145268598]},"properties":{"FID_1":5594,"OBJECTID":6231,"NAME":"SANKURI","DISTRICT":"Garissa","Status":"DivHq","Population":0,"Type":"Other","PROVINCE":"Coast"}},
{"type":"Feature","geometry":{"type":"Point","coordinates":[40.11178435674883,-2.266322877750071]},"properties":{"FID_1":5614,"OBJECTID":6253,"NAME":"GARSEN","DISTRICT":"Tana River","Status":"DivHq","Population":4977,"Type":"Other","PROVINCE":"Coast"}},
{"type":"Feature","geometry":{"type":"Point","coordinates":[40.52655015815423,-2.522746878972377]},"properties":{"FID_1":5633,"OBJECTID":6272,"NAME":"KIPINI","DISTRICT":"Tana River","Status":"DivHq","Population":0,"Type":"Other","PROVINCE":"Coast"}},
{"type":"Feature","geometry":{"type":"Point","coordinates":[40.104275074605845,-1.7895274423101286]},"properties":{"FID_1":5642,"OBJECTID":6281,"NAME":"WENJE","DISTRICT":"Tana River","Status":"DivHq","Population":0,"Type":"Other","PROVINCE":"Coast"}},
{"type":"Feature","geometry":{"type":"Point","coordinates":[39.84068059270101,-1.1920057025089847]},"properties":{"FID_1":5643,"OBJECTID":6282,"NAME":"BURA","DISTRICT":"Tana River","Status":"DivHq","Population":517,"Type":"Other","PROVINCE":"Coast"}},
{"type":"Feature","geometry":{"type":"Point","coordinates":[39.605824404668425,-0.4683077077578724]},"properties":{"FID_1":5648,"OBJECTID":6287,"NAME":"MADOGO","DISTRICT":"Tana River","Status":"DivHq","Population":0,"Type":"Other","PROVINCE":"Coast"}},
{"type":"Feature","geometry":{"type":"Point","coordinates":[40.1679914079626,-1.6926423302103482]},"properties":{"FID_1":5654,"OBJECTID":6294,"NAME":"MASALANI","DISTRICT":"Garissa","Status":"DivHq","Population":0,"Type":"Other","PROVINCE":"Coast"}},
{"type":"Feature","geometry":{"type":"Point","coordinates":[38.21128569079243,-0.554691996184655]},"properties":{"FID_1":903,"OBJECTID":2225,"NAME":"KYUSO","DISTRICT":"Mwingi","Status":"DivHq","Population":0,"Type":"Other","PROVINCE":"Eastern"}},
{"type":"Feature","geometry":{"type":"Point","coordinates":[38.310349869330956,-0.8016748645983649]},"properties":{"FID_1":912,"OBJECTID":2234,"NAME":"NGUNI","DISTRICT":"Mwingi","Status":"DivHq","Population":0,"Type":"Other","PROVINCE":"Eastern"}},
{"type":"Feature","geometry":{"type":"Point","coordinates":[38.05995448345757,-0.9319815709756473]},"properties":{"FID_1":913,"OBJECTID":2235,"NAME":"MWINGI","DISTRICT":"Mwingi","Status":"DistHq","Population":66212,"Type":"Town Council","PROVINCE":"Eastern"}},
{"type":"Feature","geometry":{"type":"Point","coordinates":[38.01787688973099,-1.0944500419286136]},"properties":{"FID_1":924,"OBJECTID":2246,"NAME":"MIGWANI","DISTRICT":"Mwingi","Status":"DivHq","Population":462,"Type":"Other","PROVINCE":"Eastern"}},
{"type":"Feature","geometry":{"type":"Point","coordinates":[38.228964545647166,-1.0814594183303825]},"properties":{"FID_1":931,"OBJECTID":2253,"NAME":"MUI","DISTRICT":"Mwingi","Status":"DivHq","Population":0,"Type":"Other","PROVINCE":"Eastern"}},
{"type":"Feature","geometry":{"type":"Point","coordinates":[38.36118681732382,-1.051537883918512]},"properties":{"FID_1":933,"OBJECTID":2255,"NAME":"NUU","DISTRICT":"Mwingi","Status":"DivHq","Population":0,"Type":"Other","PROVINCE":"Eastern"}},
{"type":"Feature","geometry":{"type":"Point","coordinates":[38.40378442045008,-0.6480868846831096]},"properties":{"FID_1":949,"OBJECTID":2271,"NAME":"NGOMENI","DISTRICT":"Mwingi","Status":"DivHq","Population":0,"Type":"Other","PROVINCE":"Eastern"}},
{"type":"Feature","geometry":{"type":"Point","coordinates":[38.080043388662205,-0.5054594484519739]},"properties":{"FID_1":967,"OBJECTID":2289,"NAME":"KATSE","DISTRICT":"Mwingi","Status":"DivHq","Population":0,"Type":"Other","PROVINCE":"Eastern"}},
{"type":"Feature","geometry":{"type":"Point","coordinates":[38.2180553366386,-0.30453906527956326]},"properties":{"FID_1":974,"OBJECTID":2296,"NAME":"TSEIKURU","DISTRICT":"Mwingi","Status":"DivHq","Population":0,"Type":"Other","PROVINCE":"Eastern"}},
{"type":"Feature","geometry":{"type":"Point","coordinates":[37.240682586752214,-0.5518617248691807]},"properties":{"FID_1":604,"OBJECTID":1671,"NAME":"BARICHO","DISTRICT":"Kirinyaga","Status":"DivHq","Population":551,"Type":"Other","PROVINCE":"Central"}},
{"type":"Feature","geometry":{"type":"Point","coordinates":[37.3249676369866,-0.5641823836078967]},"properties":{"FID_1":621,"OBJECTID":1688,"NAME":"KUTUS","DISTRICT":"Kirinyaga","Status":"DivHq","Population":35595,"Type":"Municipality","PROVINCE":"Central"}},
{"type":"Feature","geometry":{"type":"Point","coordinates":[37.352546039031914,-0.4938387385671573]},"properties":{"FID_1":633,"OBJECTID":1700,"NAME":"KIANYAGA","DISTRICT":"Kirinyaga","Status":"DivHq","Population":0,"Type":"Other","PROVINCE":"Central"}},
{"type":"Feature","geometry":{"type":"Point","coordinates":[37.34856624911487,-0.6616774063765567]},"properties":{"FID_1":718,"OBJECTID":1785,"NAME":"MWEA","DISTRICT":"Kirinyaga","Status":"DivHq","Population":0,"Type":"Other","PROVINCE":"Central"}},
{"type":"Feature","geometry":{"type":"Point","coordinates":[37.81180909741809,-0.39601374911815895]},"properties":{"FID_1":773,"OBJECTID":1941,"NAME":"IGAMBANGOMBE","DISTRICT":"Meru South","Status":"DivHq","Population":0,"Type":"Other","PROVINCE":"Eastern"}},
{"type":"Feature","geometry":{"type":"Point","coordinates":[37.56973329380535,-0.4218450615772377]},"properties":{"FID_1":454,"OBJECTID":1515,"NAME":"RUNYENJES","DISTRICT":"Embu","Status":"DivHq","Population":0,"Type":"Other","PROVINCE":"Eastern"}},
{"type":"Feature","geometry":{"type":"Point","coordinates":[37.47657875453963,-0.42770533160518265]},"properties":{"FID_1":457,"OBJECTID":1518,"NAME":"MANYATTA","DISTRICT":"Embu","Status":"DivHq","Population":0,"Type":"Other","PROVINCE":"Eastern"}},
{"type":"Feature","geometry":{"type":"Point","coordinates":[34.64958565269357,-0.3668019695623665]},"properties":{"FID_1":2707,"OBJECTID":5575,"NAME":"KENDU BAY","DISTRICT":"Rachuonyo","Status":"DivHq","Population":22048,"Type":"Town Council","PROVINCE":"Nyanza"}},
{"type":"Feature","geometry":{"type":"Point","coordinates":[34.68960326731701,-0.4257949555348706]},"properties":{"FID_1":2709,"OBJECTID":5577,"NAME":"KOSELE","DISTRICT":"Rachuonyo","Status":"DistHq","Population":0,"Type":"Other","PROVINCE":"Nyanza"}},
{"type":"Feature","geometry":{"type":"Point","coordinates":[37.64091909095438,-0.5759330259610675]},"properties":{"FID_1":1332,"OBJECTID":3418,"NAME":"SIAKAGO","DISTRICT":"Mbeere","Status":"DistHq","Population":3230,"Type":"Town Council","PROVINCE":"Eastern"}},
{"type":"Feature","geometry":{"type":"Point","coordinates":[37.530575570329134,-0.6190852325505168]},"properties":{"FID_1":1340,"OBJECTID":3426,"NAME":"GACHOKA","DISTRICT":"Mbeere","Status":"DivHq","Population":0,"Type":"Other","PROVINCE":"Eastern"}},
{"type":"Feature","geometry":{"type":"Point","coordinates":[35.1901235592346,-0.5787928022665088]},"properties":{"FID_1":4311,"OBJECTID":2307,"NAME":"LITEIN","DISTRICT":"Buret","Status":"DistHq","Population":2637,"Type":"Other","PROVINCE":"Rift Valley"}},
{"type":"Feature","geometry":{"type":"Point","coordinates":[35.09942894239335,-0.5021388930939701]},"properties":{"FID_1":4315,"OBJECTID":2312,"NAME":"RORET","DISTRICT":"Buret","Status":"DivHq","Population":0,"Type":"Other","PROVINCE":"Rift Valley"}},
{"type":"Feature","geometry":{"type":"Point","coordinates":[35.22877128372058,-0.5127194546981935]},"properties":{"FID_1":4318,"OBJECTID":2315,"NAME":"KIMULOT","DISTRICT":"Buret","Status":"DivHq","Population":0,"Type":"Other","PROVINCE":"Rift Valley"}},
{"type":"Feature","geometry":{"type":"Point","coordinates":[35.1102082902725,-0.6884984189724965]},"properties":{"FID_1":4335,"OBJECTID":2332,"NAME":"SOTIK","DISTRICT":"Buret","Status":"DivHq","Population":8042,"Type":"Town Council","PROVINCE":"Rift Valley"}},
{"type":"Feature","geometry":{"type":"Point","coordinates":[35.272048704246295,-0.6161447400468809]},"properties":{"FID_1":4336,"OBJECTID":2333,"NAME":"MOGOGOSIEK","DISTRICT":"Buret","Status":"DivHq","Population":0,"Type":"Other","PROVINCE":"Rift Valley"}},
{"type":"Feature","geometry":{"type":"Point","coordinates":[34.92477927458405,-0.724010179474164]},"properties":{"FID_1":2553,"OBJECTID":5418,"NAME":"RIGOMA","DISTRICT":"Nyamira","Status":"DivHq","Population":0,"Type":"Other","PROVINCE":"Nyanza"}},
{"type":"Feature","geometry":{"type":"Point","coordinates":[34.988005548657775,-0.5266001102517804]},"properties":{"FID_1":2569,"OBJECTID":5434,"NAME":"EKERENYO","DISTRICT":"Nyamira","Status":"DivHq","Population":0,"Type":"Other","PROVINCE":"Nyanza"}},
{"type":"Feature","geometry":{"type":"Point","coordinates":[34.83536458319181,-0.6105343884720293]},"properties":{"FID_1":2575,"OBJECTID":5441,"NAME":"MANGA","DISTRICT":"Nyamira","Status":"DivHq","Population":0,"Type":"Other","PROVINCE":"Nyanza"}},
{"type":"Feature","geometry":{"type":"Point","coordinates":[34.36990225869845,-0.5713923350985158]},"properties":{"FID_1":4933,"OBJECTID":4125,"NAME":"OGONGO","DISTRICT":"Suba","Status":"DivHq","Population":0,"Type":"Other","PROVINCE":"Nyanza"}},
{"type":"Feature","geometry":{"type":"Point","coordinates":[34.20697196269899,-0.41898457682289103]},"properties":{"FID_1":4935,"OBJECTID":4127,"NAME":"MBITA","DISTRICT":"Suba","Status":"DivHq","Population":46223,"Type":"Town Council","PROVINCE":"Nyanza"}},
{"type":"Feature","geometry":{"type":"Point","coordinates":[34.16505443542466,-0.5357404823045423]},"properties":{"FID_1":4939,"OBJECTID":4131,"NAME":"SINDO","DISTRICT":"Suba","Status":"DistHq","Population":1637,"Type":"Other","PROVINCE":"Nyanza"}},
{"type":"Feature","geometry":{"type":"Point","coordinates":[35.43253914276448,-0.9347511046837683]},"properties":{"FID_1":3451,"OBJECTID":3279,"NAME":"MULOT","DISTRICT":"Narok","Status":"DivHq","Population":0,"Type":"Other","PROVINCE":"Rift Valley"}},
{"type":"Feature","geometry":{"type":"Point","coordinates":[35.255739542698656,-1.1603726431848365]},"properties":{"FID_1":3459,"OBJECTID":3287,"NAME":"MARA","DISTRICT":"Narok","Status":"DivHq","Population":0,"Type":"Other","PROVINCE":"Rift Valley"}},
{"type":"Feature","geometry":{"type":"Point","coordinates":[35.49406546573577,-1.042296653109579]},"properties":{"FID_1":3473,"OBJECTID":3301,"NAME":"NGORENGORE","DISTRICT":"Narok","Status":"DivHq","Population":0,"Type":"Other","PROVINCE":"Rift Valley"}},
{"type":"Feature","geometry":{"type":"Point","coordinates":[35.66281550392818,-1.001224574868296]},"properties":{"FID_1":3493,"OBJECTID":3321,"NAME":"OLOLULUNGA","DISTRICT":"Narok","Status":"DivHq","Population":0,"Type":"Other","PROVINCE":"Rift Valley"}},
{"type":"Feature","geometry":{"type":"Point","coordinates":[35.83442543611079,-0.5950837384679295]},"properties":{"FID_1":3525,"OBJECTID":3353,"NAME":"OLOKRUTO","DISTRICT":"Narok","Status":"DivHq","Population":0,"Type":"Other","PROVINCE":"Rift Valley"}},
{"type":"Feature","geometry":{"type":"Point","coordinates":[34.58359953698984,-0.5979436882710663]},"properties":{"FID_1":2997,"OBJECTID":5870,"NAME":"RANGWE","DISTRICT":"Homa Bay","Status":"DivHq","Population":0,"Type":"Other","PROVINCE":"Nyanza"}},
{"type":"Feature","geometry":{"type":"Point","coordinates":[34.366232434584624,-0.7290203449446442]},"properties":{"FID_1":2999,"OBJECTID":5872,"NAME":"NDHIWA","DISTRICT":"Homa Bay","Status":"DivHq","Population":1498,"Type":"Other","PROVINCE":"Nyanza"}},
{"type":"Feature","geometry":{"type":"Point","coordinates":[34.73170076367768,-0.5850130782185845]},"properties":{"FID_1":2346,"OBJECTID":5205,"NAME":"MOSOCHO","DISTRICT":"Kisii","Status":"DivHq","Population":0,"Type":"Other","PROVINCE":"Nyanza"}},
{"type":"Feature","geometry":{"type":"Point","coordinates":[34.70623223851136,-0.6761577097227663]},"properties":{"FID_1":2349,"OBJECTID":5208,"NAME":"SUNEKA","DISTRICT":"Kisii","Status":"DivHq","Population":31739,"Type":"Town Council","PROVINCE":"Nyanza"}},
{"type":"Feature","geometry":{"type":"Point","coordinates":[34.845603979944194,-0.731720578607012]},"properties":{"FID_1":2358,"OBJECTID":5217,"NAME":"KEUMBU","DISTRICT":"Kisii","Status":"DivHq","Population":0,"Type":"Other","PROVINCE":"Nyanza"}},
{"type":"Feature","geometry":{"type":"Point","coordinates":[34.79834678022368,-0.5767726591373453]},"properties":{"FID_1":2380,"OBJECTID":5240,"NAME":"MARANI","DISTRICT":"Kisii","Status":"DivHq","Population":0,"Type":"Other","PROVINCE":"Nyanza"}},
{"type":"Feature","geometry":{"type":"Point","coordinates":[36.969418505291294,-0.6834084656172642]},"properties":{"FID_1":5932,"OBJECTID":6579,"NAME":"KANGEMA","DISTRICT":"Muranga","Status":"DivHq","Population":11317,"Type":"Town Council","PROVINCE":"Central"}},
{"type":"Feature","geometry":{"type":"Point","coordinates":[37.0067063161704,-0.7464517136382699]},"properties":{"FID_1":5941,"OBJECTID":6588,"NAME":"KAHURO","DISTRICT":"Muranga","Status":"DivHq","Population":0,"Type":"Other","PROVINCE":"Central"}},
{"type":"Feature","geometry":{"type":"Point","coordinates":[35.29861707825939,-0.9171501719799848]},"properties":{"FID_1":4246,"OBJECTID":2076,"NAME":"SIGOR","DISTRICT":"Bomet","Status":"DivHq","Population":0,"Type":"Other","PROVINCE":"Rift Valley"}},
{"type":"Feature","geometry":{"type":"Point","coordinates":[35.09385922011466,-0.8368960106348208]},"properties":{"FID_1":4252,"OBJECTID":2082,"NAME":"NDANAI","DISTRICT":"Bomet","Status":"DivHq","Population":0,"Type":"Other","PROVINCE":"Rift Valley"}},
{"type":"Feature","geometry":{"type":"Point","coordinates":[35.20992232001289,-0.8933889134309582]},"properties":{"FID_1":4259,"OBJECTID":2089,"NAME":"SIONGOROY","DISTRICT":"Bomet","Status":"DivHq","Population":0,"Type":"Other","PROVINCE":"Rift Valley"}},
{"type":"Feature","geometry":{"type":"Point","coordinates":[35.392151539596355,-0.8583171617473397]},"properties":{"FID_1":4277,"OBJECTID":2108,"NAME":"LONGISA","DISTRICT":"Bomet","Status":"DivHq","Population":0,"Type":"Other","PROVINCE":"Rift Valley"}},
{"type":"Feature","geometry":{"type":"Point","coordinates":[34.17882358101922,-0.7927135703201988]},"properties":{"FID_1":3163,"OBJECTID":6037,"NAME":"KARUNGU","DISTRICT":"Migori","Status":"DivHq","Population":0,"Type":"Other","PROVINCE":"Nyanza"}},
{"type":"Feature","geometry":{"type":"Point","coordinates":[34.09553849975605,-0.9962239309891254]},"properties":{"FID_1":3250,"OBJECTID":6124,"NAME":"MUHURU BAY","DISTRICT":"Migori","Status":"DivHq","Population":0,"Type":"Other","PROVINCE":"Nyanza"}},
{"type":"Feature","geometry":{"type":"Point","coordinates":[34.50826394981189,-0.9528018024782683]},"properties":{"FID_1":3269,"OBJECTID":6143,"NAME":"URIRI","DISTRICT":"Migori","Status":"DivHq","Population":0,"Type":"Other","PROVINCE":"Nyanza"}},
{"type":"Feature","geometry":{"type":"Point","coordinates":[34.53145258006493,-0.903189274275304]},"properties":{"FID_1":3270,"OBJECTID":6144,"NAME":"AWENDO","DISTRICT":"Migori","Status":"DivHq","Population":90153,"Type":"Town Council","PROVINCE":"Nyanza"}},
{"type":"Feature","geometry":{"type":"Point","coordinates":[34.60225841139864,-0.7552817185598731]},"properties":{"FID_1":3273,"OBJECTID":6147,"NAME":"RONGO","DISTRICT":"Migori","Status":"DivHq","Population":79817,"Type":"Town Council","PROVINCE":"Nyanza"}},
{"type":"Feature","geometry":{"type":"Point","coordinates":[37.00103661710324,-0.8926192755529905]},"properties":{"FID_1":5861,"OBJECTID":6505,"NAME":"KANDARA","DISTRICT":"Maragua","Status":"DivHq","Population":37311,"Type":"Town Council","PROVINCE":"Central"}},
{"type":"Feature","geometry":{"type":"Point","coordinates":[37.18550577132013,-0.897709592254895]},"properties":{"FID_1":5894,"OBJECTID":6540,"NAME":"MAKUYU","DISTRICT":"Maragua","Status":"DivHq","Population":28878,"Type":"Town Council","PROVINCE":"Central"}},
{"type":"Feature","geometry":{"type":"Point","coordinates":[37.12213948645795,-0.935851539210675]},"properties":{"FID_1":5895,"OBJECTID":6541,"NAME":"KENOL","DISTRICT":"Maragua","Status":"DistHq","Population":0,"Type":"Other","PROVINCE":"Central"}},
{"type":"Feature","geometry":{"type":"Point","coordinates":[36.961058993187464,-0.7997744739128088]},"properties":{"FID_1":5904,"OBJECTID":6550,"NAME":"KIGUMO","DISTRICT":"Maragua","Status":"DivHq","Population":0,"Type":"Other","PROVINCE":"Central"}},
{"type":"Feature","geometry":{"type":"Point","coordinates":[36.96204888104218,-0.936301541662874]},"properties":{"FID_1":6111,"OBJECTID":6761,"NAME":"GATANGA","DISTRICT":"Thika","Status":"DivHq","Population":0,"Type":"Other","PROVINCE":"Central"}},
{"type":"Feature","geometry":{"type":"Point","coordinates":[37.26509108591085,-0.9673532157272428]},"properties":{"FID_1":6132,"OBJECTID":6782,"NAME":"KAKUZI","DISTRICT":"Thika","Status":"DivHq","Population":0,"Type":"Other","PROVINCE":"Central"}},
{"type":"Feature","geometry":{"type":"Point","coordinates":[37.06971253075221,-1.0407969611531314]},"properties":{"FID_1":6166,"OBJECTID":6818,"NAME":"THIKA","DISTRICT":"Thika","Status":"DistHq","Population":106707,"Type":"Municipality","PROVINCE":"Central"}},
{"type":"Feature","geometry":{"type":"Point","coordinates":[36.89917259441119,-0.9552524958283513]},"properties":{"FID_1":6177,"OBJECTID":6829,"NAME":"KAMWANGI","DISTRICT":"Thika","Status":"DivHq","Population":0,"Type":"Other","PROVINCE":"Central"}},
{"type":"Feature","geometry":{"type":"Point","coordinates":[36.90341230917393,-1.0095552996222685]},"properties":{"FID_1":6201,"OBJECTID":6854,"NAME":"GATUNDU","DISTRICT":"Thika","Status":"DivHq","Population":0,"Type":"Other","PROVINCE":"Central"}},
{"type":"Feature","geometry":{"type":"Point","coordinates":[36.95957896866073,-1.1458724142289176]},"properties":{"FID_1":6203,"OBJECTID":6856,"NAME":"RUIRU","DISTRICT":"Thika","Status":"DivHq","Population":109574,"Type":"Municipality","PROVINCE":"Central"}},
{"type":"Feature","geometry":{"type":"Point","coordinates":[34.7244211591616,-0.7930536735590873]},"properties":{"FID_1":2400,"OBJECTID":5262,"NAME":"OGEMBO","DISTRICT":"Gucha","Status":"DistHq","Population":43297,"Type":"Town Council","PROVINCE":"Nyanza"}},
{"type":"Feature","geometry":{"type":"Point","coordinates":[34.627666882384744,-0.8074643901922811]},"properties":{"FID_1":2405,"OBJECTID":5267,"NAME":"NYAMARAMBE","DISTRICT":"Gucha","Status":"DivHq","Population":66582,"Type":"Town Council","PROVINCE":"Nyanza"}},
{"type":"Feature","geometry":{"type":"Point","coordinates":[34.667244524293025,-0.8972289853807008]},"properties":{"FID_1":2410,"OBJECTID":5272,"NAME":"ETAGO","DISTRICT":"Gucha","Status":"DivHq","Population":0,"Type":"Other","PROVINCE":"Nyanza"}},
{"type":"Feature","geometry":{"type":"Point","coordinates":[34.73034076973689,-0.8856284221348212]},"properties":{"FID_1":2412,"OBJECTID":5274,"NAME":"KENYENYA","DISTRICT":"Gucha","Status":"DivHq","Population":2212,"Type":"Other","PROVINCE":"Nyanza"}},
{"type":"Feature","geometry":{"type":"Point","coordinates":[34.87863196343408,-0.8906087155534723]},"properties":{"FID_1":2427,"OBJECTID":5290,"NAME":"NYACHEKI","DISTRICT":"Gucha","Status":"DivHq","Population":0,"Type":"Other","PROVINCE":"Nyanza"}},
{"type":"Feature","geometry":{"type":"Point","coordinates":[34.82198534443325,-0.8537168150661361]},"properties":{"FID_1":2431,"OBJECTID":5294,"NAME":"NYAMACHE","DISTRICT":"Gucha","Status":"DivHq","Population":24465,"Type":"Town Council","PROVINCE":"Nyanza"}},
{"type":"Feature","geometry":{"type":"Point","coordinates":[34.74659983466532,-0.7763828325883164]},"properties":{"FID_1":2454,"OBJECTID":5318,"NAME":"SAMETA","DISTRICT":"Gucha","Status":"DivHq","Population":0,"Type":"Other","PROVINCE":"Nyanza"}},
{"type":"Feature","geometry":{"type":"Point","coordinates":[36.664396313277926,-1.2424473503007378]},"properties":{"FID_1":207,"OBJECTID":1186,"NAME":"KIKUYU","DISTRICT":"Kiambu","Status":"DivHq","Population":156131,"Type":"Town Council","PROVINCE":"Central"}},
{"type":"Feature","geometry":{"type":"Point","coordinates":[36.63696796349558,-1.103810126736799]},"properties":{"FID_1":217,"OBJECTID":1196,"NAME":"LIMURU","DISTRICT":"Kiambu","Status":"DivHq","Population":68326,"Type":"Municipality","PROVINCE":"Central"}},
{"type":"Feature","geometry":{"type":"Point","coordinates":[36.75323112602828,-1.1758038852013786]},"properties":{"FID_1":293,"OBJECTID":1274,"NAME":"KARURI","DISTRICT":"Kiambu","Status":"DivHq","Population":71475,"Type":"Town Council","PROVINCE":"Central"}},
{"type":"Feature","geometry":{"type":"Point","coordinates":[36.775199847454424,-1.0553476409810558]},"properties":{"FID_1":320,"OBJECTID":1301,"NAME":"GITHUNGURI","DISTRICT":"Kiambu","Status":"DivHq","Population":5370,"Type":"Other","PROVINCE":"Central"}},
{"type":"Feature","geometry":{"type":"Point","coordinates":[37.452629954689385,-1.349903203478916]},"properties":{"FID_1":1955,"OBJECTID":826,"NAME":"MWALA","DISTRICT":"Machakos","Status":"DivHq","Population":652,"Type":"Other","PROVINCE":"Eastern"}},
{"type":"Feature","geometry":{"type":"Point","coordinates":[37.32926724236158,-1.2330170156799654]},"properties":{"FID_1":1993,"OBJECTID":867,"NAME":"MATUNGULU","DISTRICT":"Machakos","Status":"DivHq","Population":0,"Type":"Other","PROVINCE":"Eastern"}},
{"type":"Feature","geometry":{"type":"Point","coordinates":[37.34592620381729,-1.3004105326529058]},"properties":{"FID_1":2030,"OBJECTID":907,"NAME":"KANGUNDO","DISTRICT":"Machakos","Status":"DivHq","Population":179952,"Type":"Town Council","PROVINCE":"Eastern"}},
{"type":"Feature","geometry":{"type":"Point","coordinates":[37.255651444045476,-1.5922057879942213]},"properties":{"FID_1":2046,"OBJECTID":923,"NAME":"KIMUTWA","DISTRICT":"Machakos","Status":"DivHq","Population":0,"Type":"Other","PROVINCE":"Eastern"}},
{"type":"Feature","geometry":{"type":"Point","coordinates":[37.329017187566144,-1.410246284390056]},"properties":{"FID_1":2077,"OBJECTID":956,"NAME":"KATHIANI","DISTRICT":"Machakos","Status":"DivHq","Population":0,"Type":"Other","PROVINCE":"Eastern"}},
{"type":"Feature","geometry":{"type":"Point","coordinates":[37.60307122603049,-0.9722235555461617]},"properties":{"FID_1":2168,"OBJECTID":1049,"NAME":"MASINGA","DISTRICT":"Machakos","Status":"DivHq","Population":921,"Type":"Other","PROVINCE":"Eastern"}},
{"type":"Feature","geometry":{"type":"Point","coordinates":[37.33608690595961,-0.9465921600172179]},"properties":{"FID_1":6226,"OBJECTID":6879,"NAME":"NDITHINI","DISTRICT":"Machakos","Status":"DivHq","Population":0,"Type":"Other","PROVINCE":"Eastern"}},
{"type":"Feature","geometry":{"type":"Point","coordinates":[34.80699615053734,-1.227525991331681]},"properties":{"FID_1":1599,"OBJECTID":3692,"NAME":"LOLGORIAN","DISTRICT":"Trans Mara","Status":"DivHq","Population":1118,"Type":"Other","PROVINCE":"Rift Valley"}},
{"type":"Feature","geometry":{"type":"Point","coordinates":[34.881031794725224,-1.0050545723352982]},"properties":{"FID_1":1604,"OBJECTID":3697,"NAME":"KILGORIS","DISTRICT":"Trans Mara","Status":"DistHq","Population":5051,"Type":"Other","PROVINCE":"Rift Valley"}},
{"type":"Feature","geometry":{"type":"Point","coordinates":[35.08708957234566,-1.1188604674815052]},"properties":{"FID_1":1613,"OBJECTID":3706,"NAME":"KIRINDONI","DISTRICT":"Trans Mara","Status":"DivHq","Population":0,"Type":"Other","PROVINCE":"Rift Valley"}},
{"type":"Feature","geometry":{"type":"Point","coordinates":[36.304837245314985,-1.890120917371601]},"properties":{"FID_1":365,"OBJECTID":1426,"NAME":"MAGADI","DISTRICT":"Kajiado","Status":"DivHq","Population":0,"Type":"Other","PROVINCE":"Rift Valley"}},
{"type":"Feature","geometry":{"type":"Point","coordinates":[36.787528490770285,-2.5428254317120853]},"properties":{"FID_1":369,"OBJECTID":1430,"NAME":"NAMANGA","DISTRICT":"Kajiado","Status":"DistHq","Population":6205,"Type":"Other","PROVINCE":"Rift Valley"}},
{"type":"Feature","geometry":{"type":"Point","coordinates":[36.15091634688229,-1.8574391156514192]},"properties":{"FID_1":398,"OBJECTID":1459,"NAME":"OLKERAMATIAN","DISTRICT":"Kajiado","Status":"DivHq","Population":0,"Type":"Other","PROVINCE":"Rift Valley"}},
{"type":"Feature","geometry":{"type":"Point","coordinates":[37.12929864698894,-2.0982222213953348]},"properties":{"FID_1":426,"OBJECTID":1487,"NAME":"MASHURU","DISTRICT":"Kajiado","Status":"DivHq","Population":0,"Type":"Other","PROVINCE":"Rift Valley"}},
{"type":"Feature","geometry":{"type":"Point","coordinates":[37.50843580366887,-2.925246192581708]},"properties":{"FID_1":429,"OBJECTID":1490,"NAME":"OLOITOKITOK","DISTRICT":"Kajiado","Status":"DistHq","Population":0,"Type":"Other","PROVINCE":"Rift Valley"}},
{"type":"Feature","geometry":{"type":"Point","coordinates":[36.84544548233238,-1.6846704258688474]},"properties":{"FID_1":437,"OBJECTID":1498,"NAME":"ISINYA","DISTRICT":"Kajiado","Status":"DivHq","Population":0,"Type":"Other","PROVINCE":"Rift Valley"}},
{"type":"Feature","geometry":{"type":"Point","coordinates":[37.91478290082587,-1.230707117512465]},"properties":{"FID_1":4648,"OBJECTID":3839,"NAME":"KABATI","DISTRICT":"Kitui","Status":"DivHq","Population":1014,"Type":"Other","PROVINCE":"Eastern"}},
{"type":"Feature","geometry":{"type":"Point","coordinates":[38.04105542478578,-1.4162168720686275]},"properties":{"FID_1":4665,"OBJECTID":3856,"NAME":"CHULUNI","DISTRICT":"Kitui","Status":"DivHq","Population":0,"Type":"Other","PROVINCE":"Eastern"}},
{"type":"Feature","geometry":{"type":"Point","coordinates":[38.20707552642471,-1.844639454985695]},"properties":{"FID_1":4714,"OBJECTID":3906,"NAME":"MUTOMO","DISTRICT":"Kitui","Status":"DivHq","Population":1674,"Type":"Other","PROVINCE":"Eastern"}},
{"type":"Feature","geometry":{"type":"Point","coordinates":[38.18896684699487,-1.2236268411755713]},"properties":{"FID_1":4725,"OBJECTID":3917,"NAME":"MUTITO","DISTRICT":"Kitui","Status":"DivHq","Population":0,"Type":"Other","PROVINCE":"Eastern"}},
{"type":"Feature","geometry":{"type":"Point","coordinates":[38.1771171883362,-2.0635609862567583]},"properties":{"FID_1":4746,"OBJECTID":3938,"NAME":"IKUTHA","DISTRICT":"Kitui","Status":"DivHq","Population":0,"Type":"Other","PROVINCE":"Eastern"}},
{"type":"Feature","geometry":{"type":"Point","coordinates":[38.30871977362974,-1.4487886681842623]},"properties":{"FID_1":4755,"OBJECTID":3947,"NAME":"MWITIKA","DISTRICT":"Kitui","Status":"DivHq","Population":0,"Type":"Other","PROVINCE":"Eastern"}},
{"type":"Feature","geometry":{"type":"Point","coordinates":[37.85314644679251,-1.4337477154231637]},"properties":{"FID_1":4800,"OBJECTID":3992,"NAME":"YATTA","DISTRICT":"Machakos","Status":"DivHq","Population":0,"Type":"Other","PROVINCE":"Eastern"}},
{"type":"Feature","geometry":{"type":"Point","coordinates":[34.61998726081747,-1.1894039607412177]},"properties":{"FID_1":2652,"OBJECTID":5519,"NAME":"KEHANCHA","DISTRICT":"Kuria","Status":"DistHq","Population":151465,"Type":"Municipality","PROVINCE":"Nyanza"}},
{"type":"Feature","geometry":{"type":"Point","coordinates":[34.68933308033915,-1.338331661232669]},"properties":{"FID_1":2655,"OBJECTID":5522,"NAME":"NTIMARU","DISTRICT":"Kuria","Status":"DivHq","Population":0,"Type":"Other","PROVINCE":"Nyanza"}},
{"type":"Feature","geometry":{"type":"Point","coordinates":[34.65295528516364,-1.2602476213841936]},"properties":{"FID_1":2657,"OBJECTID":5525,"NAME":"KEGONGA","DISTRICT":"Kuria","Status":"DivHq","Population":0,"Type":"Other","PROVINCE":"Nyanza"}},
{"type":"Feature","geometry":{"type":"Point","coordinates":[34.53303243333505,-1.1188403154157476]},"properties":{"FID_1":2659,"OBJECTID":5527,"NAME":"MASABA","DISTRICT":"Kuria","Status":"DivHq","Population":0,"Type":"Other","PROVINCE":"Nyanza"}},
{"type":"Feature","geometry":{"type":"Point","coordinates":[34.476275779877355,-1.239336491339252]},"properties":{"FID_1":2663,"OBJECTID":5531,"NAME":"ISEBANIA","DISTRICT":"Kuria","Status":"DistHq","Population":0,"Type":"Other","PROVINCE":"Nyanza"}},
{"type":"Feature","geometry":{"type":"Point","coordinates":[34.44422770767215,-1.1638326020314935]},"properties":{"FID_1":2665,"OBJECTID":5533,"NAME":"SUBA KURIA","DISTRICT":"Kuria","Status":"DivHq","Population":0,"Type":"Other","PROVINCE":"Nyanza"}},
{"type":"Feature","geometry":{"type":"Point","coordinates":[37.73091339306173,-1.9111827232131706]},"properties":{"FID_1":1208,"OBJECTID":2941,"NAME":"KATHONZWENI","DISTRICT":"Makueni","Status":"DivHq","Population":0,"Type":"Other","PROVINCE":"Eastern"}},
{"type":"Feature","geometry":{"type":"Point","coordinates":[37.53618480503559,-1.9455444278319203]},"properties":{"FID_1":1224,"OBJECTID":2957,"NAME":"MATILIKU","DISTRICT":"Makueni","Status":"DivHq","Population":0,"Type":"Other","PROVINCE":"Eastern"}},
{"type":"Feature","geometry":{"type":"Point","coordinates":[37.47235846531273,-2.077081314046224]},"properties":{"FID_1":1228,"OBJECTID":2961,"NAME":"EMALI","DISTRICT":"Makueni","Status":"DivHq","Population":3649,"Type":"Other","PROVINCE":"Eastern"}},
{"type":"Feature","geometry":{"type":"Point","coordinates":[37.8212778856427,-2.280652241413601]},"properties":{"FID_1":1254,"OBJECTID":2987,"NAME":"MAKINDU","DISTRICT":"Makueni","Status":"DivHq","Population":6226,"Type":"Other","PROVINCE":"Eastern"}},
{"type":"Feature","geometry":{"type":"Point","coordinates":[37.38432370882007,-1.9460043622494572]},"properties":{"FID_1":1260,"OBJECTID":2993,"NAME":"KASIKEU","DISTRICT":"Makueni","Status":"DivHq","Population":0,"Type":"Other","PROVINCE":"Eastern"}},
{"type":"Feature","geometry":{"type":"Point","coordinates":[37.34651599146213,-1.8067870498052716]},"properties":{"FID_1":1278,"OBJECTID":3011,"NAME":"KILOME","DISTRICT":"Makueni","Status":"DivHq","Population":0,"Type":"Other","PROVINCE":"Eastern"}},
{"type":"Feature","geometry":{"type":"Point","coordinates":[37.45510969545234,-1.653359048120572]},"properties":{"FID_1":1807,"OBJECTID":2785,"NAME":"MBOONI","DISTRICT":"Makueni","Status":"DivHq","Population":0,"Type":"Other","PROVINCE":"Eastern"}},
{"type":"Feature","geometry":{"type":"Point","coordinates":[37.96683929422798,-2.4082890859131423]},"properties":{"FID_1":1849,"OBJECTID":2827,"NAME":"KIBWEZI","DISTRICT":"Makueni","Status":"DivHq","Population":3824,"Type":"Other","PROVINCE":"Eastern"}},
{"type":"Feature","geometry":{"type":"Point","coordinates":[37.701945207009906,-1.6513890364090116]},"properties":{"FID_1":1884,"OBJECTID":2862,"NAME":"KALAWA","DISTRICT":"Makueni","Status":"DivHq","Population":0,"Type":"Other","PROVINCE":"Eastern"}},
{"type":"Feature","geometry":{"type":"Point","coordinates":[38.1640875563107,-2.689524155899284]},"properties":{"FID_1":2225,"OBJECTID":3062,"NAME":"MTITO ANDEI","DISTRICT":"Makueni","Status":"DivHq","Population":53745,"Type":"Town Council","PROVINCE":"Eastern"}},
{"type":"Feature","geometry":{"type":"Point","coordinates":[41.48994498084478,-1.7446057273413402]},"properties":{"FID_1":5765,"OBJECTID":6406,"NAME":"KIUNGA","DISTRICT":"Lamu","Status":"DivHq","Population":0,"Type":"Other","PROVINCE":"Coast"}},
{"type":"Feature","geometry":{"type":"Point","coordinates":[40.81483371604497,-2.1787286152674548]},"properties":{"FID_1":5770,"OBJECTID":6411,"NAME":"HINDI","DISTRICT":"Lamu","Status":"DivHq","Population":0,"Type":"Other","PROVINCE":"Coast"}},
{"type":"Feature","geometry":{"type":"Point","coordinates":[40.43887531713212,-2.3857994806307783]},"properties":{"FID_1":5771,"OBJECTID":6412,"NAME":"WITU","DISTRICT":"Lamu","Status":"DivHq","Population":1322,"Type":"Other","PROVINCE":"Coast"}},
{"type":"Feature","geometry":{"type":"Point","coordinates":[40.697980321455276,-2.386129682466189]},"properties":{"FID_1":5772,"OBJECTID":6413,"NAME":"MPEKETONI","DISTRICT":"Lamu","Status":"DivHq","Population":867,"Type":"Other","PROVINCE":"Coast"}},
{"type":"Feature","geometry":{"type":"Point","coordinates":[40.11616341095349,-3.215113815782922]},"properties":{"FID_1":5536,"OBJECTID":4737,"NAME":"MALINDI","DISTRICT":"Malindi","Status":"DistHq","Population":118428,"Type":"Municipality","PROVINCE":"Coast"}},
{"type":"Feature","geometry":{"type":"Point","coordinates":[39.96196250883911,-3.030263746924054]},"properties":{"FID_1":5547,"OBJECTID":4748,"NAME":"MARAFA","DISTRICT":"Malindi","Status":"DivHq","Population":0,"Type":"Other","PROVINCE":"Coast"}},
{"type":"Feature","geometry":{"type":"Point","coordinates":[39.70916690344339,-3.3610313417748254]},"properties":{"FID_1":3021,"OBJECTID":5895,"NAME":"VITENGENI","DISTRICT":"Kilifi","Status":"DivHq","Population":0,"Type":"Other","PROVINCE":"Coast"}},
{"type":"Feature","geometry":{"type":"Point","coordinates":[39.52173764857297,-3.5391407627276306]},"properties":{"FID_1":3023,"OBJECTID":5897,"NAME":"BAMBA","DISTRICT":"Kilifi","Status":"DivHq","Population":1369,"Type":"Other","PROVINCE":"Coast"}},
{"type":"Feature","geometry":{"type":"Point","coordinates":[39.62594131177221,-3.814755722693638]},"properties":{"FID_1":3026,"OBJECTID":5900,"NAME":"KALOLENI","DISTRICT":"Kilifi","Status":"DivHq","Population":4431,"Type":"Other","PROVINCE":"Coast"}},
{"type":"Feature","geometry":{"type":"Point","coordinates":[39.691627758963755,-3.541991065611638]},"properties":{"FID_1":3037,"OBJECTID":5911,"NAME":"GANZE","DISTRICT":"Kilifi","Status":"DivHq","Population":0,"Type":"Other","PROVINCE":"Coast"}},
{"type":"Feature","geometry":{"type":"Point","coordinates":[39.12436968772863,-4.550474935914167]},"properties":{"FID_1":5667,"OBJECTID":6307,"NAME":"LUNGA LUNGA","DISTRICT":"Kwale","Status":"DivHq","Population":967,"Type":"Other","PROVINCE":"Coast"}},
{"type":"Feature","geometry":{"type":"Point","coordinates":[39.262212492682096,-3.7921341218059683]},"properties":{"FID_1":5680,"OBJECTID":6320,"NAME":"SAMBURU","DISTRICT":"Kwale","Status":"DivHq","Population":0,"Type":"Other","PROVINCE":"Coast"}},
{"type":"Feature","geometry":{"type":"Point","coordinates":[39.48222894735835,-4.463070639905143]},"properties":{"FID_1":5698,"OBJECTID":6338,"NAME":"MSAMBWENI","DISTRICT":"Kwale","Status":"DivHq","Population":13043,"Type":"Other","PROVINCE":"Coast"}},
{"type":"Feature","geometry":{"type":"Point","coordinates":[39.41421303214645,-4.3631551621644595]},"properties":{"FID_1":5708,"OBJECTID":6348,"NAME":"SHIMBA HILLS","DISTRICT":"Kwale","Status":"DivHq","Population":0,"Type":"Other","PROVINCE":"Coast"}},
{"type":"Feature","geometry":{"type":"Point","coordinates":[39.422742941990045,-3.9899049793981556]},"properties":{"FID_1":5727,"OBJECTID":6368,"NAME":"BOFU","DISTRICT":"Kwale","Status":"DivHq","Population":0,"Type":"Other","PROVINCE":"Coast"}},
{"type":"Feature","geometry":{"type":"Point","coordinates":[39.31424909439687,-4.134852681767823]},"properties":{"FID_1":5735,"OBJECTID":6376,"NAME":"KINANGO","DISTRICT":"Kwale","Status":"DivHq","Population":1707,"Type":"Other","PROVINCE":"Coast"}},
{"type":"Feature","geometry":{"type":"Point","coordinates":[39.69528706214167,-4.004566075780006]},"properties":{"FID_1":1676,"OBJECTID":3771,"NAME":"KISAUNI","DISTRICT":"Mombasa","Status":"DivHq","Population":0,"Type":"Other","PROVINCE":"Coast"}},
{"type":"Feature","geometry":{"type":"Point","coordinates":[39.57907382560564,-4.003925889906485]},"properties":{"FID_1":1670,"OBJECTID":3765,"NAME":"MIRITINI","DISTRICT":"Mombasa","Status":"DivHq","Population":0,"Type":"Other","PROVINCE":"Coast"}},
{"type":"Feature","geometry":{"type":"Point","coordinates":[39.664778757581686,-4.075779888155869]},"properties":{"FID_1":1679,"OBJECTID":3774,"NAME":"LIKONI","DISTRICT":"Mombasa","Status":"DivHq","Population":0,"Type":"Other","PROVINCE":"Coast"}},
{"type":"Feature","geometry":{"type":"Point","coordinates":[38.47793897910603,-3.3358567268225094]},"properties":{"FID_1":0,"OBJECTID":0,"NAME":"TAUSA","DISTRICT":"Taita Taveta","Status":"DivHq","Population":0,"Type":"Other","PROVINCE":"Coast"}},
{"type":"Feature","geometry":{"type":"Point","coordinates":[38.56182485807974,-3.3904422874713127]},"properties":{"FID_1":0,"OBJECTID":0,"NAME":"VOI TOWN","DISTRICT":"Taita Taveta","Status":"DivHq","Population":33077,"Type":"Municipality","PROVINCE":"Coast"}},
{"type":"Feature","geometry":{"type":"Point","coordinates":[38.377004185078704,-3.5011250233304616]},"properties":{"FID_1":0,"OBJECTID":0,"NAME":"MWATATE","DISTRICT":"Taita Taveta","Status":"DivHq","Population":5613,"Type":"Town Council","PROVINCE":"Coast"}},
{"type":"Feature","geometry":{"type":"Point","coordinates":[37.67140282069625,-3.3913939360903513]},"properties":{"FID_1":0,"OBJECTID":0,"NAME":"TAVETA","DISTRICT":"Taita Taveta","Status":"DistHq","Population":55580,"Type":"Town Council","PROVINCE":"Coast"}},
{"type":"Feature","geometry":{"type":"Point","coordinates":[38.430904266324475,-3.378723182500651]},"properties":{"FID_1":0,"OBJECTID":0,"NAME":"RONGE JUU","DISTRICT":"Taita Taveta","Status":"DivHq","Population":0,"Type":"Other","PROVINCE":"Coast"}},
{"type":"Feature","geometry":{"type":"Point","coordinates":[36.65453476072658,-1.3597420954227746]},"properties":{"FID_1":0,"OBJECTID":0,"NAME":"NGONG","DISTRICT":"Kajiado","Status":"DivHq","Population":20701,"Type":"Other","PROVINCE":"Rift Valley"}},
{"type":"Feature","geometry":{"type":"Point","coordinates":[40.508328118130365,3.0295622245070364]},"properties":{"FID_1":0,"OBJECTID":0,"NAME":"SHINDIR FATUMA","DISTRICT":"Mandera","Status":"DivHq","Population":0,"Type":"Other","PROVINCE":"NORTH EASTERN"}},
{"type":"Feature","geometry":{"type":"Point","coordinates":[40.232207719493346,3.4502645328272457]},"properties":{"FID_1":0,"OBJECTID":0,"NAME":"TAKABA","DISTRICT":"Mandera","Status":"DivHq","Population":0,"Type":"Other","PROVINCE":"NORTH EASTERN"}},
{"type":"Feature","geometry":{"type":"Point","coordinates":[39.87798617793287,3.4265203816655423]},"properties":{"FID_1":0,"OBJECTID":0,"NAME":"DANDU","DISTRICT":"Mandera","Status":"DivHq","Population":0,"Type":"Other","PROVINCE":"NORTH EASTERN"}},
{"type":"Feature","geometry":{"type":"Point","coordinates":[41.184063913546694,3.1530651511949257]},"properties":{"FID_1":0,"OBJECTID":0,"NAME":"LAFEY","DISTRICT":"Mandera","Status":"DivHq","Population":0,"Type":"Other","PROVINCE":"NORTH EASTERN"}},
{"type":"Feature","geometry":{"type":"Point","coordinates":[41.41380589988051,3.3832174016182863]},"properties":{"FID_1":0,"OBJECTID":0,"NAME":"FINO","DISTRICT":"Mandera","Status":"DivHq","Population":0,"Type":"Other","PROVINCE":"NORTH EASTERN"}},
{"type":"Feature","geometry":{"type":"Point","coordinates":[40.868080825235,3.5552593052044914]},"properties":{"FID_1":0,"OBJECTID":0,"NAME":"ASHABITO","DISTRICT":"Mandera","Status":"DivHq","Population":0,"Type":"Other","PROVINCE":"NORTH EASTERN"}},
{"type":"Feature","geometry":{"type":"Point","coordinates":[40.34422031293645,3.9448320307609492]},"properties":{"FID_1":0,"OBJECTID":0,"NAME":"BANISA","DISTRICT":"Mandera","Status":"DivHq","Population":1034,"Type":"Other","PROVINCE":"NORTH EASTERN"}},
{"type":"Feature","geometry":{"type":"Point","coordinates":[40.69457659876245,4.241751186592529]},"properties":{"FID_1":0,"OBJECTID":0,"NAME":"MALKAMARI","DISTRICT":"Mandera","Status":"DivHq","Population":0,"Type":"Other","PROVINCE":"NORTH EASTERN"}},
{"type":"Feature","geometry":{"type":"Point","coordinates":[41.06264500662709,4.021556877872158]},"properties":{"FID_1":0,"OBJECTID":0,"NAME":"RHAMU DINTO","DISTRICT":"Mandera","Status":"DivHq","Population":0,"Type":"Other","PROVINCE":"North Eastern"}},
{"type":"Feature","geometry":{"type":"Point","coordinates":[41.475181025197195,3.950798742196956]},"properties":{"FID_1":0,"OBJECTID":0,"NAME":"HARERI","DISTRICT":"Mandera","Status":"DivHq","Population":0,"Type":"Other","PROVINCE":"NORTH EASTERN"}},
{"type":"Feature","geometry":{"type":"Point","coordinates":[41.52493600113963,3.8320601660410354]},"properties":{"FID_1":0,"OBJECTID":0,"NAME":"LIBEHYA","DISTRICT":"Mandera","Status":"DivHq","Population":0,"Type":"Other","PROVINCE":"NORTH EASTERN"}},
{"type":"Feature","geometry":{"type":"Point","coordinates":[41.69941175633343,3.7857616573826722]},"properties":{"FID_1":0,"OBJECTID":0,"NAME":"HARERI HOSLE","DISTRICT":"Mandera","Status":"DivHq","Population":0,"Type":"Other","PROVINCE":"NORTH EASTERN"}},
{"type":"Feature","geometry":{"type":"Point","coordinates":[41.61766726960311,3.9679173472460416]},"properties":{"FID_1":0,"OBJECTID":0,"NAME":"KHALALIO","DISTRICT":"Mandera","Status":"DivHq","Population":0,"Type":"Other","PROVINCE":"NORTH EASTERN"}},
{"type":"Feature","geometry":{"type":"Point","coordinates":[36.97101041772302,-1.4433790318612945]},"properties":{"FID_1":0,"OBJECTID":0,"NAME":"ATHI RIVER","DISTRICT":"Machakos","Status":"DivHq","Population":0,"Type":"","PROVINCE":"Eastern"}},
{"type":"Feature","geometry":{"type":"Point","coordinates":[36.80399739124932,-1.1501733389803377]},"properties":{"FID_1":0,"OBJECTID":0,"NAME":"Ndumberi","DISTRICT":"","Status":"DivHq","Population":0,"Type":"","PROVINCE":""}},
{"type":"Feature","geometry":{"type":"Point","coordinates":[37.21352877401548,4.161671168780998]},"properties":{"FID_1":0,"OBJECTID":0,"NAME":"El  Yibo","DISTRICT":"Marsabit","Status":"DivHq","Population":0,"Type":"Other","PROVINCE":"Eastern"}},
{"type":"Feature","geometry":{"type":"Point","coordinates":[34.15610691145286,-0.840219684004128]},"properties":{"FID_1":0,"OBJECTID":0,"NAME":"Karungu Bay","DISTRICT":"Migori","Status":"DivHq","Population":0,"Type":"Other","PROVINCE":"Nyanza"}},
{"type":"Feature","geometry":{"type":"Point","coordinates":[34.32748560905139,-0.22349860983206835]},"properties":{"FID_1":0,"OBJECTID":0,"NAME":"OWIMBI","DISTRICT":"BONDO","Status":"DivHq","Population":0,"Type":"Other","PROVINCE":"Nyanza"}},
{"type":"Feature","geometry":{"type":"Point","coordinates":[34.280460640400975,4.42033866812366]},"properties":{"FID_1":0,"OBJECTID":0,"NAME":"NANDABAS","DISTRICT":"TURKANA","Status":"DivHq","Population":0,"Type":"","PROVINCE":"Rift Valley"}}
]}